[{"id":148,"name":"آذر بیگدلی","description":null,"fullUrl":"/azar","rootCatId":2738,"nickname":"آذر بیگدلی","published":true,"imageUrl":"/api/ganjoor/poet/image/azar.gif","birthYearInLHijri":1134,"validBirthDate":true,"deathYearInLHijri":1195,"validDeathDate":true,"pinOrder":0,"birthPlace":"اصفهان","birthPlaceLatitude":32.6539,"birthPlaceLongitude":51.666,"deathPlace":"قم","deathPlaceLatitude":34.6416,"deathPlaceLongitude":50.8746},{"id":119,"name":"آشفتهٔ شیرازی","description":null,"fullUrl":"/ashofte","rootCatId":2526,"nickname":"آشفتهٔ شیرازی","published":true,"imageUrl":"/api/ganjoor/poet/image/ashofte.gif","birthYearInLHijri":1200,"validBirthDate":true,"deathYearInLHijri":1288,"validDeathDate":true,"pinOrder":0,"birthPlace":"شیراز","birthPlaceLatitude":29.5926,"birthPlaceLongitude":52.5836,"deathPlace":"نجف","deathPlaceLatitude":32.0107,"deathPlaceLongitude":44.3265},{"id":57,"name":"ابن حسام خوسفی","description":null,"fullUrl":"/ebnehesam","rootCatId":1870,"nickname":"ابن حسام خوسفی","published":true,"imageUrl":"/api/ganjoor/poet/image/ebnehesam.gif","birthYearInLHijri":782,"validBirthDate":true,"deathYearInLHijri":875,"validDeathDate":true,"pinOrder":0,"birthPlace":"خوسف","birthPlaceLatitude":32.7811,"birthPlaceLongitude":58.892,"deathPlace":"خوسف","deathPlaceLatitude":32.7811,"deathPlaceLongitude":58.892},{"id":106,"name":"ابن یمین فریومدی","description":null,"fullUrl":"/ebneyamin","rootCatId":2424,"nickname":"ابن یمین","published":true,"imageUrl":"/api/ganjoor/poet/image/ebneyamin.gif","birthYearInLHijri":685,"validBirthDate":true,"deathYearInLHijri":769,"validDeathDate":true,"pinOrder":0,"birthPlace":"فریومد","birthPlaceLatitude":36.5151,"birthPlaceLongitude":56.7496,"deathPlace":"فریومد","deathPlaceLatitude":36.5151,"deathPlaceLongitude":56.7496},{"id":114,"name":"ابوالحسن فراهانی","description":null,"fullUrl":"/abolhasan","rootCatId":2472,"nickname":"ابوالحسن فراهانی","published":true,"imageUrl":"/api/ganjoor/poet/image/abolhasan.gif","birthYearInLHijri":1001,"validBirthDate":false,"deathYearInLHijri":1040,"validDeathDate":true,"pinOrder":0,"birthPlace":"","birthPlaceLatitude":0,"birthPlaceLongitude":0,"deathPlace":"","deathPlaceLatitude":0,"deathPlaceLongitude":0},{"id":110,"name":"ابوالفرج رونی","description":null,"fullUrl":"/rooni","rootCatId":2452,"nickname":"ابوالفرج رونی","published":true,"imageUrl":"/api/ganjoor/poet/image/rooni.gif","birthYearInLHijri":450,"validBirthDate":false,"deathYearInLHijri":525,"validDeathDate":true,"pinOrder":0,"birthPlace":"نیشابور","birthPlaceLatitude":36.2141,"birthPlaceLongitude":58.7961,"deathPlace":"","deathPlaceLatitude":0,"deathPlaceLongitude":0},{"id":194,"name":"ابوالفضل بیهقی","description":null,"fullUrl":"/beyhaghi","rootCatId":3163,"nickname":"ابوالفضل بیهقی","published":true,"imageUrl":"/api/ganjoor/poet/image/beyhaghi.gif","birthYearInLHijri":385,"validBirthDate":true,"deathYearInLHijri":470,"validDeathDate":true,"pinOrder":0,"birthPlace":"حارث‌آباد","birthPlaceLatitude":36.116111,"birthPlaceLongitude":57.610556,"deathPlace":"غزنه","deathPlaceLatitude":33.5451,"deathPlaceLongitude":68.4174},{"id":26,"name":"ابوسعید ابوالخیر","description":null,"fullUrl":"/abusaeed","rootCatId":304,"nickname":"ابوسعید ابوالخیر","published":true,"imageUrl":"/api/ganjoor/poet/image/abusaeed.gif","birthYearInLHijri":357,"validBirthDate":true,"deathYearInLHijri":440,"validDeathDate":true,"pinOrder":0,"birthPlace":"میهنه","birthPlaceLatitude":36.871667,"birthPlaceLongitude":60.404167,"deathPlace":"میهنه","deathPlaceLatitude":36.871667,"deathPlaceLongitude":60.404167},{"id":101,"name":"ابوعلی حسن بن احمد عثمانی","description":null,"fullUrl":"/osmani","rootCatId":2388,"nickname":"ابوعلی عثمانی","published":true,"imageUrl":"/api/ganjoor/poet/image/osmani.gif","birthYearInLHijri":401,"validBirthDate":false,"deathYearInLHijri":485,"validDeathDate":false,"pinOrder":0,"birthPlace":"نیشابور","birthPlaceLatitude":36.2141,"birthPlaceLongitude":58.7961,"deathPlace":"","deathPlaceLatitude":0,"deathPlaceLongitude":0},{"id":143,"name":"اثیر اخسیکتی","description":null,"fullUrl":"/akhsikati","rootCatId":2686,"nickname":"اثیر اخسیکتی","published":true,"imageUrl":"/api/ganjoor/poet/image/akhsikati.gif","birthYearInLHijri":560,"validBirthDate":false,"deathYearInLHijri":609,"validDeathDate":true,"pinOrder":0,"birthPlace":"اخسیکت","birthPlaceLatitude":40.886569,"birthPlaceLongitude":71.450602,"deathPlace":"خلخال","deathPlaceLatitude":48.525278,"deathPlaceLongitude":37.616111},{"id":147,"name":"ادیب الممالک فراهانی","description":null,"fullUrl":"/adib","rootCatId":2718,"nickname":"ادیب الممالک","published":true,"imageUrl":"/api/ganjoor/poet/image/adib.gif","birthYearInLHijri":1277,"validBirthDate":true,"deathYearInLHijri":1336,"validDeathDate":true,"pinOrder":0,"birthPlace":"گازران","birthPlaceLatitude":34.575,"birthPlaceLongitude":49.617778,"deathPlace":"","deathPlaceLatitude":0,"deathPlaceLongitude":0},{"id":156,"name":"ادیب صابر","description":null,"fullUrl":"/saber","rootCatId":2816,"nickname":"ادیب صابر","published":true,"imageUrl":"/api/ganjoor/poet/image/saber.gif","birthYearInLHijri":505,"validBirthDate":false,"deathYearInLHijri":546,"validDeathDate":true,"pinOrder":0,"birthPlace":"ترمذ","birthPlaceLatitude":37.216667,"birthPlaceLongitude":67.283333,"deathPlace":"","deathPlaceLatitude":0,"deathPlaceLongitude":0},{"id":63,"name":"ازرقی هروی","description":null,"fullUrl":"/azraghi","rootCatId":2034,"nickname":"ازرقی هروی","published":true,"imageUrl":"/api/ganjoor/poet/image/azraghi.gif","birthYearInLHijri":400,"validBirthDate":false,"deathYearInLHijri":465,"validDeathDate":true,"pinOrder":0,"birthPlace":"هرات","birthPlaceLatitude":34.3529,"birthPlaceLongitude":62.204,"deathPlace":"","deathPlaceLatitude":0,"deathPlaceLongitude":0},{"id":52,"name":"اسدی توسی","description":null,"fullUrl":"/asadi","rootCatId":1736,"nickname":"اسدی توسی","published":true,"imageUrl":"/api/ganjoor/poet/image/asadi.gif","birthYearInLHijri":400,"validBirthDate":false,"deathYearInLHijri":465,"validDeathDate":true,"pinOrder":0,"birthPlace":"مشهد","birthPlaceLatitude":36.2605,"birthPlaceLongitude":59.6168,"deathPlace":"تبریز","deathPlaceLatitude":38.0962,"deathPlaceLongitude":46.2738},{"id":130,"name":"اسیر شهرستانی","description":null,"fullUrl":"/shahrestani","rootCatId":2609,"nickname":"اسیر شهرستانی","published":true,"imageUrl":"/api/ganjoor/poet/image/shahrestani.gif","birthYearInLHijri":1029,"validBirthDate":true,"deathYearInLHijri":1059,"validDeathDate":true,"pinOrder":0,"birthPlace":"اصفهان","birthPlaceLatitude":32.6539,"birthPlaceLongitude":51.666,"deathPlace":"","deathPlaceLatitude":0,"deathPlaceLongitude":0},{"id":97,"name":"اسیری لاهیجی","description":null,"fullUrl":"/asiri","rootCatId":2358,"nickname":"اسیری لاهیجی","published":true,"imageUrl":"/api/ganjoor/poet/image/asiri.gif","birthYearInLHijri":860,"validBirthDate":false,"deathYearInLHijri":912,"validDeathDate":true,"pinOrder":0,"birthPlace":"لاهیجان","birthPlaceLatitude":37.207,"birthPlaceLongitude":50.0034,"deathPlace":"","deathPlaceLatitude":0,"deathPlaceLongitude":0},{"id":164,"name":"افسر کرمانی","description":null,"fullUrl":"/kermani","rootCatId":2912,"nickname":"افسر کرمانی","published":true,"imageUrl":"/api/ganjoor/poet/image/kermani.gif","birthYearInLHijri":1259,"validBirthDate":true,"deathYearInLHijri":1300,"validDeathDate":true,"pinOrder":0,"birthPlace":"کرمان","birthPlaceLatitude":30.2839,"birthPlaceLongitude":57.0834,"deathPlace":"کرمان","deathPlaceLatitude":30.2839,"deathPlaceLongitude":57.0834},{"id":92,"name":"افسرالملوک عاملی","description":null,"fullUrl":"/afsar","rootCatId":2300,"nickname":"افسرالملوک عاملی","published":true,"imageUrl":"/api/ganjoor/poet/image/afsar.gif","birthYearInLHijri":1309,"validBirthDate":true,"deathYearInLHijri":1399,"validDeathDate":false,"pinOrder":0,"birthPlace":"مشهد","birthPlaceLatitude":36.2605,"birthPlaceLongitude":59.6168,"deathPlace":"","deathPlaceLatitude":0,"deathPlaceLongitude":0},{"id":42,"name":"اقبال لاهوری","description":null,"fullUrl":"/iqbal","rootCatId":1357,"nickname":"اقبال لاهوری","published":true,"imageUrl":"/api/ganjoor/poet/image/iqbal.gif","birthYearInLHijri":1290,"validBirthDate":true,"deathYearInLHijri":1357,"validDeathDate":true,"pinOrder":0,"birthPlace":"سیالکوت","birthPlaceLatitude":32.4945,"birthPlaceLongitude":74.5229,"deathPlace":"","deathPlaceLatitude":0,"deathPlaceLongitude":0},{"id":155,"name":"الهامی کرمانشاهی","description":null,"fullUrl":"/elhami","rootCatId":2805,"nickname":"الهامی کرمانشاهی","published":true,"imageUrl":"/api/ganjoor/poet/image/elhami.gif","birthYearInLHijri":1264,"validBirthDate":true,"deathYearInLHijri":1325,"validDeathDate":true,"pinOrder":0,"birthPlace":"تویسرکان","birthPlaceLatitude":34.9,"birthPlaceLongitude":48.4,"deathPlace":"کرمانشاه","deathPlaceLatitude":34.3277,"deathPlaceLongitude":47.0778},{"id":116,"name":"امامی هروی","description":null,"fullUrl":"/emami","rootCatId":2490,"nickname":"امامی هروی","published":true,"imageUrl":"/api/ganjoor/poet/image/emami.gif","birthYearInLHijri":601,"validBirthDate":false,"deathYearInLHijri":686,"validDeathDate":true,"pinOrder":0,"birthPlace":"","birthPlaceLatitude":0,"birthPlaceLongitude":0,"deathPlace":"","deathPlaceLatitude":0,"deathPlaceLongitude":0},{"id":195,"name":"امیر پازواری","description":null,"fullUrl":"/pazevari","rootCatId":3172,"nickname":"امیر پازواری","published":true,"imageUrl":"/api/ganjoor/poet/image/pazevari.gif","birthYearInLHijri":975,"validBirthDate":false,"deathYearInLHijri":1050,"validDeathDate":false,"pinOrder":0,"birthPlace":"پازوار","birthPlaceLatitude":36.648333,"birthPlaceLongitude":52.651389,"deathPlace":"پازوار","deathPlaceLatitude":36.648333,"deathPlaceLongitude":52.651389},{"id":99,"name":"امیر حسینی هروی","description":null,"fullUrl":"/hoseyni","rootCatId":2372,"nickname":"امیر حسینی هروی","published":true,"imageUrl":"/api/ganjoor/poet/image/hoseyni.gif","birthYearInLHijri":660,"validBirthDate":false,"deathYearInLHijri":718,"validDeathDate":true,"pinOrder":0,"birthPlace":"غور","birthPlaceLatitude":34.5225,"birthPlaceLongitude":65.251667,"deathPlace":"هرات","deathPlaceLatitude":34.3529,"deathPlaceLongitude":62.204},{"id":103,"name":"امیر شاهی سبزواری","description":null,"fullUrl":"/shahi","rootCatId":2405,"nickname":"امیر شاهی","published":true,"imageUrl":"/api/ganjoor/poet/image/shahi.gif","birthYearInLHijri":785,"validBirthDate":false,"deathYearInLHijri":875,"validDeathDate":false,"pinOrder":0,"birthPlace":"سبزوار","birthPlaceLatitude":36.2152,"birthPlaceLongitude":57.6678,"deathPlace":"سبزوار","deathPlaceLatitude":36.2152,"deathPlaceLongitude":57.6678},{"id":64,"name":"امیر معزی نیشابوری","description":null,"fullUrl":"/amir","rootCatId":2038,"nickname":"امیر معزی","published":true,"imageUrl":"/api/ganjoor/poet/image/amir.gif","birthYearInLHijri":460,"validBirthDate":false,"deathYearInLHijri":521,"validDeathDate":false,"pinOrder":0,"birthPlace":"نیشابور","birthPlaceLatitude":36.2141,"birthPlaceLongitude":58.7961,"deathPlace":"نیشابور","deathPlaceLatitude":36.2141,"deathPlaceLongitude":58.7961},{"id":34,"name":"امیرخسرو دهلوی","description":null,"fullUrl":"/khosro","rootCatId":354,"nickname":"امیرخسرو دهلوی","published":true,"imageUrl":"/api/ganjoor/poet/image/khosro.gif","birthYearInLHijri":652,"validBirthDate":false,"deathYearInLHijri":725,"validDeathDate":true,"pinOrder":0,"birthPlace":"دهلی","birthPlaceLatitude":28.7041,"birthPlaceLongitude":77.1025,"deathPlace":"دهلی","deathPlaceLatitude":28.7041,"deathPlaceLongitude":77.1025},{"id":151,"name":"امیرعلیشیر نوایی","description":null,"fullUrl":"/fani","rootCatId":2767,"nickname":"امیرعلیشیر نوایی","published":true,"imageUrl":"/api/ganjoor/poet/image/fani.gif","birthYearInLHijri":844,"validBirthDate":true,"deathYearInLHijri":906,"validDeathDate":true,"pinOrder":0,"birthPlace":"هرات","birthPlaceLatitude":34.3529,"birthPlaceLongitude":62.204,"deathPlace":"","deathPlaceLatitude":0,"deathPlaceLongitude":0},{"id":18,"name":"انوری ابیوردی","description":null,"fullUrl":"/anvari","rootCatId":242,"nickname":"انوری","published":true,"imageUrl":"/api/ganjoor/poet/image/anvari.gif","birthYearInLHijri":501,"validBirthDate":false,"deathYearInLHijri":583,"validDeathDate":false,"pinOrder":0,"birthPlace":"ابیورد","birthPlaceLatitude":37.391111,"birthPlaceLongitude":59.566667,"deathPlace":"","deathPlaceLatitude":0,"deathPlaceLongitude":0},{"id":117,"name":"اوحدالدین کرمانی","description":null,"fullUrl":"/ouhad","rootCatId":2498,"nickname":"اوحدالدین کرمانی","published":true,"imageUrl":"/api/ganjoor/poet/image/ouhad.gif","birthYearInLHijri":561,"validBirthDate":true,"deathYearInLHijri":635,"validDeathDate":true,"pinOrder":0,"birthPlace":"بردسیر","birthPlaceLatitude":29.9264,"birthPlaceLongitude":56.575,"deathPlace":"بغداد","deathPlaceLatitude":33.3152,"deathPlaceLongitude":44.3661},{"id":19,"name":"اوحدی مراغه‌ای","description":null,"fullUrl":"/ouhadi","rootCatId":248,"nickname":"اوحدی","published":true,"imageUrl":"/api/ganjoor/poet/image/ouhadi.gif","birthYearInLHijri":673,"validBirthDate":true,"deathYearInLHijri":738,"validDeathDate":true,"pinOrder":0,"birthPlace":"مراغه","birthPlaceLatitude":37.3892,"birthPlaceLongitude":46.2534,"deathPlace":"","deathPlaceLatitude":0,"deathPlaceLongitude":0},{"id":122,"name":"اهلی شیرازی","description":null,"fullUrl":"/ahli","rootCatId":2543,"nickname":"اهلی شیرازی","published":true,"imageUrl":"/api/ganjoor/poet/image/ahli.gif","birthYearInLHijri":858,"validBirthDate":true,"deathYearInLHijri":942,"validDeathDate":true,"pinOrder":0,"birthPlace":"شیراز","birthPlaceLatitude":29.5926,"birthPlaceLongitude":52.5836,"deathPlace":"شیراز","deathPlaceLatitude":29.5926,"deathPlaceLongitude":52.5836},{"id":127,"name":"ایرانشان ابن ابی الخیر ","description":null,"fullUrl":"/iranshan","rootCatId":2580,"nickname":"ایرانشان","published":true,"imageUrl":"/api/ganjoor/poet/image/iranshan.gif","birthYearInLHijri":460,"validBirthDate":false,"deathYearInLHijri":510,"validDeathDate":false,"pinOrder":0,"birthPlace":"","birthPlaceLatitude":0,"birthPlaceLongitude":0,"deathPlace":"","deathPlaceLatitude":0,"deathPlaceLongitude":0},{"id":88,"name":"ایرج میرزا","description":null,"fullUrl":"/iraj","rootCatId":2271,"nickname":"ایرج میرزا","published":true,"imageUrl":"/api/ganjoor/poet/image/iraj.gif","birthYearInLHijri":1290,"validBirthDate":true,"deathYearInLHijri":1344,"validDeathDate":true,"pinOrder":0,"birthPlace":"تبریز","birthPlaceLatitude":38.0962,"birthPlaceLongitude":46.2738,"deathPlace":"","deathPlaceLatitude":0,"deathPlaceLongitude":0},{"id":56,"name":"باباافضل کاشانی","description":null,"fullUrl":"/babaafzal","rootCatId":1826,"nickname":"باباافضل کاشانی","published":true,"imageUrl":"/api/ganjoor/poet/image/babaafzal.gif","birthYearInLHijri":540,"validBirthDate":false,"deathYearInLHijri":610,"validDeathDate":true,"pinOrder":0,"birthPlace":"کاشان","birthPlaceLatitude":33.985,"birthPlaceLongitude":51.41,"deathPlace":"","deathPlaceLatitude":0,"deathPlaceLongitude":0},{"id":28,"name":"باباطاهر","description":null,"fullUrl":"/babataher","rootCatId":315,"nickname":"باباطاهر","published":true,"imageUrl":"/api/ganjoor/poet/image/babataher.gif","birthYearInLHijri":429,"validBirthDate":false,"deathYearInLHijri":499,"validDeathDate":false,"pinOrder":0,"birthPlace":"همدان","birthPlaceLatitude":34.7989,"birthPlaceLongitude":48.515,"deathPlace":"همدان","deathPlaceLatitude":34.7989,"deathPlaceLongitude":48.515},{"id":115,"name":"بابافغانی شیرازی","description":null,"fullUrl":"/faghani","rootCatId":2481,"nickname":"بابافغانی","published":true,"imageUrl":"/api/ganjoor/poet/image/faghani.gif","birthYearInLHijri":875,"validBirthDate":false,"deathYearInLHijri":925,"validDeathDate":true,"pinOrder":0,"birthPlace":"شیراز","birthPlaceLatitude":29.5926,"birthPlaceLongitude":52.5836,"deathPlace":"","deathPlaceLatitude":0,"deathPlaceLongitude":0},{"id":173,"name":"بلند اقبال","description":null,"fullUrl":"/bolandeghbal","rootCatId":2992,"nickname":"بلند اقبال","published":true,"imageUrl":"/api/ganjoor/poet/image/bolandeghbal.gif","birthYearInLHijri":1245,"validBirthDate":true,"deathYearInLHijri":1318,"validDeathDate":true,"pinOrder":0,"birthPlace":"شیراز","birthPlaceLatitude":29.5926,"birthPlaceLongitude":52.5836,"deathPlace":"نجف","deathPlaceLatitude":32.0107,"deathPlaceLongitude":44.3265},{"id":43,"name":"بیدل دهلوی","description":null,"fullUrl":"/bidel","rootCatId":1400,"nickname":"بیدل دهلوی","published":true,"imageUrl":"/api/ganjoor/poet/image/bidel.gif","birthYearInLHijri":1054,"validBirthDate":true,"deathYearInLHijri":1133,"validDeathDate":true,"pinOrder":0,"birthPlace":"عظیم‌آباد پتنه","birthPlaceLatitude":25.5941,"birthPlaceLongitude":85.1376,"deathPlace":"دهلی","deathPlaceLatitude":28.7041,"deathPlaceLongitude":77.1025},{"id":8,"name":"پروین اعتصامی","description":null,"fullUrl":"/parvin","rootCatId":146,"nickname":"پروین اعتصامی","published":true,"imageUrl":"/api/ganjoor/poet/image/parvin.gif","birthYearInLHijri":1324,"validBirthDate":true,"deathYearInLHijri":1360,"validDeathDate":true,"pinOrder":0,"birthPlace":"تبریز","birthPlaceLatitude":38.0962,"birthPlaceLongitude":46.2738,"deathPlace":"قم","deathPlaceLatitude":34.6416,"deathPlaceLongitude":50.8746},{"id":189,"name":"ترکی شیرازی","description":null,"fullUrl":"/torki","rootCatId":3140,"nickname":"ترکی شیرازی","published":true,"imageUrl":"/api/ganjoor/poet/image/torki.gif","birthYearInLHijri":1260,"validBirthDate":false,"deathYearInLHijri":1330,"validDeathDate":true,"pinOrder":0,"birthPlace":"","birthPlaceLatitude":0,"birthPlaceLongitude":0,"deathPlace":"","deathPlaceLatitude":0,"deathPlaceLongitude":0},{"id":24,"name":"جامی","description":null,"fullUrl":"/jami","rootCatId":285,"nickname":"جامی","published":true,"imageUrl":"/api/ganjoor/poet/image/jami.gif","birthYearInLHijri":817,"validBirthDate":true,"deathYearInLHijri":898,"validDeathDate":true,"pinOrder":0,"birthPlace":"خرجرد جام","birthPlaceLatitude":34.5331,"birthPlaceLongitude":60.1789,"deathPlace":"هرات","deathPlaceLatitude":34.3529,"deathPlaceLongitude":62.204},{"id":85,"name":"جلال عضد","description":null,"fullUrl":"/jalal","rootCatId":2232,"nickname":"جلال عضد","published":true,"imageUrl":"/api/ganjoor/poet/image/jalal.gif","birthYearInLHijri":701,"validBirthDate":false,"deathYearInLHijri":799,"validDeathDate":false,"pinOrder":0,"birthPlace":"یزد","birthPlaceLatitude":31.8974,"birthPlaceLongitude":54.3569,"deathPlace":"یزد","deathPlaceLatitude":31.8974,"deathPlaceLongitude":54.3569},{"id":107,"name":"جمال‌الدین عبدالرزاق اصفهانی","description":null,"fullUrl":"/jamal","rootCatId":2435,"nickname":"جمال‌الدین عبدالرزاق","published":true,"imageUrl":"/api/ganjoor/poet/image/jamal.gif","birthYearInLHijri":501,"validBirthDate":false,"deathYearInLHijri":588,"validDeathDate":false,"pinOrder":0,"birthPlace":"اصفهان","birthPlaceLatitude":32.6539,"birthPlaceLongitude":51.666,"deathPlace":"","deathPlaceLatitude":0,"deathPlaceLongitude":0},{"id":121,"name":"جویای تبریزی","description":null,"fullUrl":"/jooya","rootCatId":2535,"nickname":"جویای تبریزی","published":true,"imageUrl":"/api/ganjoor/poet/image/jooya.gif","birthYearInLHijri":1050,"validBirthDate":false,"deathYearInLHijri":1118,"validDeathDate":true,"pinOrder":0,"birthPlace":"جاموی کشمیر","birthPlaceLatitude":32.73,"birthPlaceLongitude":74.87,"deathPlace":"","deathPlaceLatitude":0,"deathPlaceLongitude":0},{"id":137,"name":"جهان ملک خاتون","description":null,"fullUrl":"/jahan","rootCatId":2644,"nickname":"جهان ملک خاتون","published":true,"imageUrl":"/api/ganjoor/poet/image/jahan.gif","birthYearInLHijri":724,"validBirthDate":true,"deathYearInLHijri":795,"validDeathDate":true,"pinOrder":0,"birthPlace":"شیراز","birthPlaceLatitude":29.5926,"birthPlaceLongitude":52.5836,"deathPlace":"","deathPlaceLatitude":0,"deathPlaceLongitude":0},{"id":178,"name":"جیحون یزدی","description":null,"fullUrl":"/jeyhoon","rootCatId":3048,"nickname":"جیحون یزدی","published":true,"imageUrl":"/api/ganjoor/poet/image/jeyhoon.gif","birthYearInLHijri":1250,"validBirthDate":true,"deathYearInLHijri":1301,"validDeathDate":true,"pinOrder":0,"birthPlace":"یزد","birthPlaceLatitude":31.8974,"birthPlaceLongitude":54.3569,"deathPlace":"کرمان","deathPlaceLatitude":30.2839,"deathPlaceLongitude":57.0834},{"id":190,"name":"حاجب شیرازی","description":null,"fullUrl":"/hajeb","rootCatId":3147,"nickname":"حاجب شیرازی","published":true,"imageUrl":"/api/ganjoor/poet/image/hajeb.gif","birthYearInLHijri":1271,"validBirthDate":true,"deathYearInLHijri":1334,"validDeathDate":true,"pinOrder":0,"birthPlace":"مرودشت","birthPlaceLatitude":29.8,"birthPlaceLongitude":52.83,"deathPlace":"تهران","deathPlaceLatitude":35.6892,"deathPlaceLongitude":51.389},{"id":2,"name":"حافظ شیرازی","description":null,"fullUrl":"/hafez","rootCatId":9,"nickname":"حافظ","published":true,"imageUrl":"/api/ganjoor/poet/image/hafez.gif","birthYearInLHijri":726,"validBirthDate":true,"deathYearInLHijri":792,"validDeathDate":true,"pinOrder":1,"birthPlace":"شیراز","birthPlaceLatitude":29.5926,"birthPlaceLongitude":52.5836,"deathPlace":"شیراز","deathPlaceLatitude":29.5926,"deathPlaceLongitude":52.5836},{"id":76,"name":"حزین لاهیجی","description":null,"fullUrl":"/hazin","rootCatId":2169,"nickname":"حزین لاهیجی","published":true,"imageUrl":"/api/ganjoor/poet/image/hazin.gif","birthYearInLHijri":1103,"validBirthDate":true,"deathYearInLHijri":1181,"validDeathDate":true,"pinOrder":0,"birthPlace":"اصفهان","birthPlaceLatitude":32.6539,"birthPlaceLongitude":51.666,"deathPlace":"بنارس","deathPlaceLatitude":25.3176,"deathPlaceLongitude":82.9739},{"id":89,"name":"حسین خوارزمی","description":null,"fullUrl":"/hoseyn","rootCatId":2283,"nickname":"حسین خوارزمی","published":true,"imageUrl":"/api/ganjoor/poet/image/hoseyn.gif","birthYearInLHijri":780,"validBirthDate":false,"deathYearInLHijri":840,"validDeathDate":true,"pinOrder":0,"birthPlace":"خوارزم","birthPlaceLatitude":41.3895,"birthPlaceLongitude":60.3415,"deathPlace":"","deathPlaceLatitude":0,"deathPlaceLongitude":0},{"id":80,"name":"حکیم سبزواری","description":null,"fullUrl":"/asrar","rootCatId":2209,"nickname":"حکیم سبزواری","published":true,"imageUrl":"/api/ganjoor/poet/image/asrar.gif","birthYearInLHijri":1212,"validBirthDate":true,"deathYearInLHijri":1289,"validDeathDate":true,"pinOrder":0,"birthPlace":"سبزوار","birthPlaceLatitude":36.2152,"birthPlaceLongitude":57.6678,"deathPlace":"سبزوار","deathPlaceLatitude":36.2152,"deathPlaceLongitude":57.6678},{"id":65,"name":"حکیم نزاری قهستانی","description":null,"fullUrl":"/nezari","rootCatId":2045,"nickname":"حکیم نزاری","published":true,"imageUrl":"/api/ganjoor/poet/image/nezari.gif","birthYearInLHijri":645,"validBirthDate":true,"deathYearInLHijri":721,"validDeathDate":true,"pinOrder":0,"birthPlace":"فوداج","birthPlaceLatitude":32.818889,"birthPlaceLongitude":59.277222,"deathPlace":"","deathPlaceLatitude":0,"deathPlaceLongitude":0},{"id":162,"name":"حمیدالدین بلخی","description":null,"fullUrl":"/hamid","rootCatId":2870,"nickname":"حمیدالدین بلخی","published":true,"imageUrl":"/api/ganjoor/poet/image/hamid.gif","birthYearInLHijri":501,"validBirthDate":false,"deathYearInLHijri":559,"validDeathDate":true,"pinOrder":0,"birthPlace":"بلخ","birthPlaceLatitude":36.7551,"birthPlaceLongitude":66.8975,"deathPlace":"","deathPlaceLatitude":0,"deathPlaceLongitude":0},{"id":131,"name":"حیدر شیرازی","description":null,"fullUrl":"/heydar","rootCatId":2613,"nickname":"حیدر شیرازی","published":true,"imageUrl":"/api/ganjoor/poet/image/heydar.gif","birthYearInLHijri":760,"validBirthDate":false,"deathYearInLHijri":795,"validDeathDate":false,"pinOrder":0,"birthPlace":"شیراز","birthPlaceLatitude":29.5926,"birthPlaceLongitude":52.5836,"deathPlace":"","deathPlaceLatitude":0,"deathPlaceLongitude":0},{"id":16,"name":"خاقانی شروانی","description":null,"fullUrl":"/khaghani","rootCatId":228,"nickname":"خاقانی","published":true,"imageUrl":"/api/ganjoor/poet/image/khaghani.gif","birthYearInLHijri":520,"validBirthDate":true,"deathYearInLHijri":595,"validDeathDate":true,"pinOrder":0,"birthPlace":"شروان","birthPlaceLatitude":40.6319,"birthPlaceLongitude":48.6364,"deathPlace":"تبریز","deathPlaceLatitude":38.0962,"deathPlaceLongitude":46.2738},{"id":104,"name":"خالد نقشبندی","description":null,"fullUrl":"/khaled","rootCatId":2412,"nickname":"خالد نقشبندی","published":true,"imageUrl":"/api/ganjoor/poet/image/khaled.gif","birthYearInLHijri":1193,"validBirthDate":true,"deathYearInLHijri":1242,"validDeathDate":true,"pinOrder":0,"birthPlace":"سلیمانیه","birthPlaceLatitude":35.5558,"birthPlaceLongitude":45.4351,"deathPlace":"","deathPlaceLatitude":0,"deathPlaceLongitude":0},{"id":48,"name":"خلیل‌الله خلیلی","description":null,"fullUrl":"/khalili","rootCatId":1687,"nickname":"خلیل‌الله خلیلی","published":true,"imageUrl":"/api/ganjoor/poet/image/khalili.gif","birthYearInLHijri":1325,"validBirthDate":false,"deathYearInLHijri":1408,"validDeathDate":false,"pinOrder":0,"birthPlace":"کابل","birthPlaceLatitude":34.5553,"birthPlaceLongitude":69.2075,"deathPlace":"","deathPlaceLatitude":0,"deathPlaceLongitude":0},{"id":20,"name":"خواجوی کرمانی","description":null,"fullUrl":"/khajoo","rootCatId":257,"nickname":"خواجوی کرمانی","published":true,"imageUrl":"/api/ganjoor/poet/image/khajoo.gif","birthYearInLHijri":689,"validBirthDate":true,"deathYearInLHijri":753,"validDeathDate":true,"pinOrder":0,"birthPlace":"کرمان","birthPlaceLatitude":30.2839,"birthPlaceLongitude":57.0834,"deathPlace":"شیراز","deathPlaceLatitude":29.5926,"deathPlaceLongitude":52.5836},{"id":72,"name":"خواجه عبدالله انصاری","description":null,"fullUrl":"/abdullah","rootCatId":2088,"nickname":"خواجه عبدالله انصاری","published":true,"imageUrl":"/api/ganjoor/poet/image/abdullah.gif","birthYearInLHijri":396,"validBirthDate":true,"deathYearInLHijri":481,"validDeathDate":true,"pinOrder":0,"birthPlace":"هرات","birthPlaceLatitude":34.3529,"birthPlaceLongitude":62.204,"deathPlace":"هرات","deathPlaceLatitude":34.3529,"deathPlaceLongitude":62.204},{"id":161,"name":"خواجه نصیرالدین طوسی","description":null,"fullUrl":"/khajenasir","rootCatId":2862,"nickname":"خواجه نصیرالدین طوسی","published":true,"imageUrl":"/api/ganjoor/poet/image/khajenasir.gif","birthYearInLHijri":597,"validBirthDate":true,"deathYearInLHijri":672,"validDeathDate":true,"pinOrder":0,"birthPlace":"مشهد","birthPlaceLatitude":36.2605,"birthPlaceLongitude":59.6168,"deathPlace":"بغداد","deathPlaceLatitude":33.3152,"deathPlaceLongitude":44.3661},{"id":118,"name":"خیالی بخارایی","description":null,"fullUrl":"/khiali","rootCatId":2519,"nickname":"خیالی بخارایی","published":true,"imageUrl":"/api/ganjoor/poet/image/khiali.gif","birthYearInLHijri":801,"validBirthDate":false,"deathYearInLHijri":850,"validDeathDate":true,"pinOrder":0,"birthPlace":"بخارا","birthPlaceLatitude":39.7681,"birthPlaceLongitude":64.4556,"deathPlace":"بخارا","deathPlaceLatitude":39.7681,"deathPlaceLongitude":64.4556},{"id":3,"name":"خیام نیشابوری","description":null,"fullUrl":"/khayyam","rootCatId":30,"nickname":"خیام","published":true,"imageUrl":"/api/ganjoor/poet/image/khayyam.gif","birthYearInLHijri":439,"validBirthDate":true,"deathYearInLHijri":526,"validDeathDate":true,"pinOrder":5,"birthPlace":"نیشابور","birthPlaceLatitude":36.2141,"birthPlaceLongitude":58.7961,"deathPlace":"نیشابور","deathPlaceLatitude":36.2141,"deathPlaceLongitude":58.7961},{"id":112,"name":"دقیقی طوسی","description":null,"fullUrl":"/daghighi","rootCatId":2467,"nickname":"دقیقی","published":true,"imageUrl":"/api/ganjoor/poet/image/daghighi.gif","birthYearInLHijri":320,"validBirthDate":true,"deathYearInLHijri":369,"validDeathDate":false,"pinOrder":0,"birthPlace":"مشهد","birthPlaceLatitude":36.2605,"birthPlaceLongitude":59.6168,"deathPlace":"","deathPlaceLatitude":0,"deathPlaceLongitude":0},{"id":36,"name":"رشحه","description":null,"fullUrl":"/rashhe","rootCatId":301,"nickname":"رشحه","published":true,"imageUrl":"/api/ganjoor/poet/image/rashhe.gif","birthYearInLHijri":1198,"validBirthDate":true,"deathYearInLHijri":1231,"validDeathDate":false,"pinOrder":0,"birthPlace":"اصفهان","birthPlaceLatitude":32.6539,"birthPlaceLongitude":51.666,"deathPlace":"اصفهان","deathPlaceLatitude":32.6539,"deathPlaceLongitude":51.666},{"id":93,"name":"رضاقلی خان هدایت","description":null,"fullUrl":"/rhedayat","rootCatId":2302,"nickname":"رضاقلی خان هدایت","published":true,"imageUrl":"/api/ganjoor/poet/image/rhedayat.gif","birthYearInLHijri":1215,"validBirthDate":false,"deathYearInLHijri":1288,"validDeathDate":false,"pinOrder":0,"birthPlace":"تهران","birthPlaceLatitude":35.6892,"birthPlaceLongitude":51.389,"deathPlace":"","deathPlaceLatitude":0,"deathPlaceLongitude":0},{"id":47,"name":"رضی‌الدین آرتیمانی","description":null,"fullUrl":"/razi","rootCatId":1681,"nickname":"رضی‌الدین آرتیمانی","published":true,"imageUrl":"/api/ganjoor/poet/image/razi.gif","birthYearInLHijri":960,"validBirthDate":false,"deathYearInLHijri":1037,"validDeathDate":false,"pinOrder":0,"birthPlace":"آرتیمان","birthPlaceLatitude":34.5785,"birthPlaceLongitude":48.4469,"deathPlace":"","deathPlaceLatitude":0,"deathPlaceLongitude":0},{"id":167,"name":"رفیق اصفهانی","description":null,"fullUrl":"/rafigh","rootCatId":2949,"nickname":"رفیق اصفهانی","published":true,"imageUrl":"/api/ganjoor/poet/image/rafigh.gif","birthYearInLHijri":1150,"validBirthDate":true,"deathYearInLHijri":1212,"validDeathDate":true,"pinOrder":0,"birthPlace":"اصفهان","birthPlaceLatitude":32.6539,"birthPlaceLongitude":51.666,"deathPlace":"نجف","deathPlaceLatitude":32.0107,"deathPlaceLongitude":44.3265},{"id":12,"name":"رودکی سمرقندی","description":null,"fullUrl":"/roodaki","rootCatId":209,"nickname":"رودکی","published":true,"imageUrl":"/api/ganjoor/poet/image/roodaki.gif","birthYearInLHijri":244,"validBirthDate":true,"deathYearInLHijri":329,"validDeathDate":true,"pinOrder":0,"birthPlace":"سمرقند","birthPlaceLatitude":39.627,"birthPlaceLongitude":66.975,"deathPlace":"","deathPlaceLatitude":0,"deathPlaceLongitude":0},{"id":41,"name":"رهی معیری","description":null,"fullUrl":"/rahi","rootCatId":1325,"nickname":"رهی معیری","published":true,"imageUrl":"/api/ganjoor/poet/image/rahi.gif","birthYearInLHijri":1327,"validBirthDate":false,"deathYearInLHijri":1388,"validDeathDate":false,"pinOrder":0,"birthPlace":"تهران","birthPlaceLatitude":35.6892,"birthPlaceLongitude":51.389,"deathPlace":"","deathPlaceLatitude":0,"deathPlaceLongitude":0},{"id":135,"name":"سحاب اصفهانی","description":null,"fullUrl":"/sahab","rootCatId":2633,"nickname":"سحاب اصفهانی","published":true,"imageUrl":"/api/ganjoor/poet/image/sahab.gif","birthYearInLHijri":1180,"validBirthDate":false,"deathYearInLHijri":1229,"validDeathDate":true,"pinOrder":0,"birthPlace":"اصفهان","birthPlaceLatitude":32.6539,"birthPlaceLongitude":51.666,"deathPlace":"نجف","deathPlaceLatitude":32.0107,"deathPlaceLongitude":44.3265},{"id":166,"name":"سراج قمری","description":null,"fullUrl":"/ghomri","rootCatId":2942,"nickname":"سراج قمری","published":true,"imageUrl":"/api/ganjoor/poet/image/ghomri.gif","birthYearInLHijri":545,"validBirthDate":false,"deathYearInLHijri":625,"validDeathDate":true,"pinOrder":0,"birthPlace":"آمل","birthPlaceLatitude":36.43,"birthPlaceLongitude":52.21,"deathPlace":"","deathPlaceLatitude":0,"deathPlaceLongitude":0},{"id":126,"name":"سرایندهٔ فرامرزنامه","description":null,"fullUrl":"/nashenas","rootCatId":2581,"nickname":"سرایندهٔ فرامرزنامه","published":true,"imageUrl":"/api/ganjoor/poet/image/nashenas.gif","birthYearInLHijri":430,"validBirthDate":false,"deathYearInLHijri":510,"validDeathDate":false,"pinOrder":0,"birthPlace":"","birthPlaceLatitude":0,"birthPlaceLongitude":0,"deathPlace":"","deathPlaceLatitude":0,"deathPlaceLongitude":0},{"id":66,"name":"سعدالدین وراوینی","description":null,"fullUrl":"/varavini","rootCatId":2048,"nickname":"سعدالدین وراوینی","published":true,"imageUrl":"/api/ganjoor/poet/image/varavini.gif","birthYearInLHijri":580,"validBirthDate":false,"deathYearInLHijri":640,"validDeathDate":false,"pinOrder":0,"birthPlace":"مشگین‌شهر","birthPlaceLatitude":38.4047,"birthPlaceLongitude":47.665,"deathPlace":"","deathPlaceLatitude":0,"deathPlaceLongitude":0},{"id":7,"name":"سعدی شیرازی","description":null,"fullUrl":"/saadi","rootCatId":118,"nickname":"سعدی","published":true,"imageUrl":"/api/ganjoor/poet/image/saadi.gif","birthYearInLHijri":615,"validBirthDate":false,"deathYearInLHijri":694,"validDeathDate":false,"pinOrder":2,"birthPlace":"شیراز","birthPlaceLatitude":29.5926,"birthPlaceLongitude":52.5836,"deathPlace":"شیراز","deathPlaceLatitude":29.5926,"deathPlaceLongitude":52.5836},{"id":128,"name":"سعیدا","description":null,"fullUrl":"/saeeda","rootCatId":2588,"nickname":"سعیدا","published":true,"imageUrl":"/api/ganjoor/poet/image/saeeda.gif","birthYearInLHijri":1105,"validBirthDate":false,"deathYearInLHijri":1077,"validDeathDate":false,"pinOrder":0,"birthPlace":"یزد","birthPlaceLatitude":31.8974,"birthPlaceLongitude":54.3569,"deathPlace":"","deathPlaceLatitude":0,"deathPlaceLongitude":0},{"id":105,"name":"سلطان باهو","description":null,"fullUrl":"/bahoo","rootCatId":2422,"nickname":"سلطان باهو","published":true,"imageUrl":"/api/ganjoor/poet/image/bahoo.gif","birthYearInLHijri":1039,"validBirthDate":false,"deathYearInLHijri":1102,"validDeathDate":false,"pinOrder":0,"birthPlace":"جهنگ","birthPlaceLatitude":31.269444,"birthPlaceLongitude":72.316111,"deathPlace":"","deathPlaceLatitude":0,"deathPlaceLongitude":0},{"id":91,"name":"سلطان ولد","description":null,"fullUrl":"/valad","rootCatId":2293,"nickname":"سلطان ولد","published":true,"imageUrl":"/api/ganjoor/poet/image/valad.gif","birthYearInLHijri":623,"validBirthDate":false,"deathYearInLHijri":712,"validDeathDate":false,"pinOrder":0,"birthPlace":"لارنده","birthPlaceLatitude":37.181111,"birthPlaceLongitude":33.215,"deathPlace":"","deathPlaceLatitude":0,"deathPlaceLongitude":0},{"id":40,"name":"سلمان ساوجی","description":null,"fullUrl":"/salman","rootCatId":1132,"nickname":"سلمان ساوجی","published":true,"imageUrl":"/api/ganjoor/poet/image/salman.gif","birthYearInLHijri":701,"validBirthDate":false,"deathYearInLHijri":778,"validDeathDate":false,"pinOrder":0,"birthPlace":"ساوه","birthPlaceLatitude":35.0236,"birthPlaceLongitude":50.3585,"deathPlace":"","deathPlaceLatitude":0,"deathPlaceLongitude":0},{"id":120,"name":"سلیم تهرانی","description":null,"fullUrl":"/salim","rootCatId":2528,"nickname":"سلیم تهرانی","published":true,"imageUrl":"/api/ganjoor/poet/image/salim.gif","birthYearInLHijri":1001,"validBirthDate":false,"deathYearInLHijri":1057,"validDeathDate":true,"pinOrder":0,"birthPlace":"تهران","birthPlaceLatitude":35.6892,"birthPlaceLongitude":51.389,"deathPlace":"جاموی کشمیر","deathPlaceLatitude":32.73,"deathPlaceLongitude":74.87},{"id":133,"name":"سلیمی جرونی","description":null,"fullUrl":"/jarooni","rootCatId":2626,"nickname":"سلیمی جرونی","published":true,"imageUrl":"/api/ganjoor/poet/image/jarooni.gif","birthYearInLHijri":830,"validBirthDate":false,"deathYearInLHijri":890,"validDeathDate":false,"pinOrder":0,"birthPlace":"بندرعباس","birthPlaceLatitude":27.1883,"birthPlaceLongitude":56.2766,"deathPlace":"","deathPlaceLatitude":0,"deathPlaceLongitude":0},{"id":10,"name":"سنایی غزنوی","description":null,"fullUrl":"/sanaee","rootCatId":188,"nickname":"سنایی","published":true,"imageUrl":"/api/ganjoor/poet/image/sanaee.gif","birthYearInLHijri":463,"validBirthDate":false,"deathYearInLHijri":535,"validDeathDate":false,"pinOrder":0,"birthPlace":"غزنه","birthPlaceLatitude":33.5451,"birthPlaceLongitude":68.4174,"deathPlace":"","deathPlaceLatitude":0,"deathPlaceLongitude":0},{"id":177,"name":"سوزنی سمرقندی","description":null,"fullUrl":"/soozani","rootCatId":3026,"nickname":"سوزنی سمرقندی","published":true,"imageUrl":"/api/ganjoor/poet/image/soozani.gif","birthYearInLHijri":487,"validBirthDate":true,"deathYearInLHijri":569,"validDeathDate":true,"pinOrder":0,"birthPlace":"نخشب","birthPlaceLatitude":38.866667,"birthPlaceLongitude":65.8,"deathPlace":"","deathPlaceLatitude":0,"deathPlaceLongitude":0},{"id":144,"name":"سید حسن غزنوی","description":null,"fullUrl":"/hasan","rootCatId":2694,"nickname":"سید حسن غزنوی","published":true,"imageUrl":"/api/ganjoor/poet/image/hasan.gif","birthYearInLHijri":535,"validBirthDate":true,"deathYearInLHijri":565,"validDeathDate":true,"pinOrder":0,"birthPlace":"غزنه","birthPlaceLatitude":33.5451,"birthPlaceLongitude":68.4174,"deathPlace":"","deathPlaceLatitude":0,"deathPlaceLongitude":0},{"id":181,"name":"سیدای نسفی","description":null,"fullUrl":"/nasafi","rootCatId":3066,"nickname":"سیدای نسفی","published":true,"imageUrl":"/api/ganjoor/poet/image/nasafi.gif","birthYearInLHijri":1046,"validBirthDate":false,"deathYearInLHijri":1122,"validDeathDate":false,"pinOrder":0,"birthPlace":"نخشب","birthPlaceLatitude":38.866667,"birthPlaceLongitude":65.8,"deathPlace":"","deathPlaceLatitude":0,"deathPlaceLongitude":0},{"id":31,"name":"سیف فرغانی","description":null,"fullUrl":"/seyf","rootCatId":334,"nickname":"سیف فرغانی","published":true,"imageUrl":"/api/ganjoor/poet/image/seyf.gif","birthYearInLHijri":701,"validBirthDate":false,"deathYearInLHijri":749,"validDeathDate":false,"pinOrder":0,"birthPlace":"فرغانه","birthPlaceLatitude":40.386389,"birthPlaceLongitude":71.786389,"deathPlace":"","deathPlaceLatitude":0,"deathPlaceLongitude":0},{"id":55,"name":"شاطر عباس صبوحی","description":null,"fullUrl":"/shater","rootCatId":1821,"nickname":"شاطر عباس صبوحی","published":true,"imageUrl":"/api/ganjoor/poet/image/shater.gif","birthYearInLHijri":1275,"validBirthDate":false,"deathYearInLHijri":1315,"validDeathDate":false,"pinOrder":0,"birthPlace":"قم","birthPlaceLatitude":34.6416,"birthPlaceLongitude":50.8746,"deathPlace":"","deathPlaceLatitude":0,"deathPlaceLongitude":0},{"id":51,"name":"شاه نعمت‌الله ولی","description":null,"fullUrl":"/shahnematollah","rootCatId":1722,"nickname":"شاه نعمت‌الله ولی","published":true,"imageUrl":"/api/ganjoor/poet/image/shahnematollah.gif","birthYearInLHijri":731,"validBirthDate":false,"deathYearInLHijri":834,"validDeathDate":false,"pinOrder":0,"birthPlace":"کرمان","birthPlaceLatitude":30.2839,"birthPlaceLongitude":57.0834,"deathPlace":"","deathPlaceLatitude":0,"deathPlaceLongitude":0},{"id":83,"name":"ابراهیم شاهدی دده","description":null,"fullUrl":"/shahedi","rootCatId":2221,"nickname":"شاهدی","published":true,"imageUrl":"/api/ganjoor/poet/image/shahedi.gif","birthYearInLHijri":875,"validBirthDate":false,"deathYearInLHijri":957,"validDeathDate":false,"pinOrder":0,"birthPlace":"مغله","birthPlaceLatitude":37.2154,"birthPlaceLongitude":28.3634,"deathPlace":"","deathPlaceLatitude":0,"deathPlaceLongitude":0},{"id":78,"name":"شمس مغربی","description":null,"fullUrl":"/maghrebi","rootCatId":2197,"nickname":"شمس مغربی","published":true,"imageUrl":"/api/ganjoor/poet/image/maghrebi.gif","birthYearInLHijri":749,"validBirthDate":false,"deathYearInLHijri":809,"validDeathDate":false,"pinOrder":0,"birthPlace":"تبریز","birthPlaceLatitude":38.0962,"birthPlaceLongitude":46.2738,"deathPlace":"","deathPlaceLatitude":0,"deathPlaceLongitude":0},{"id":35,"name":"شهریار","description":null,"fullUrl":"/shahriar","rootCatId":372,"nickname":"شهریار","published":true,"imageUrl":"/api/ganjoor/poet/image/shahriar.gif","birthYearInLHijri":1324,"validBirthDate":false,"deathYearInLHijri":1409,"validDeathDate":false,"pinOrder":0,"birthPlace":"تبریز","birthPlaceLatitude":38.0962,"birthPlaceLongitude":46.2738,"deathPlace":"","deathPlaceLatitude":0,"deathPlaceLongitude":0},{"id":30,"name":"شیخ بهایی","description":null,"fullUrl":"/bahaee","rootCatId":326,"nickname":"شیخ بهایی","published":true,"imageUrl":"/api/ganjoor/poet/image/bahaee.gif","birthYearInLHijri":953,"validBirthDate":false,"deathYearInLHijri":1030,"validDeathDate":false,"pinOrder":0,"birthPlace":"بعلبک","birthPlaceLatitude":34.0047,"birthPlaceLongitude":36.211,"deathPlace":"","deathPlaceLatitude":0,"deathPlaceLongitude":0},{"id":23,"name":"شیخ محمود شبستری","description":null,"fullUrl":"/shabestari","rootCatId":283,"nickname":"شیخ محمود شبستری","published":true,"imageUrl":"/api/ganjoor/poet/image/shabestari.gif","birthYearInLHijri":687,"validBirthDate":false,"deathYearInLHijri":720,"validDeathDate":false,"pinOrder":0,"birthPlace":"شبستر","birthPlaceLatitude":38.1802,"birthPlaceLongitude":45.7079,"deathPlace":"","deathPlaceLatitude":0,"deathPlaceLongitude":0},{"id":22,"name":"صائب تبریزی","description":null,"fullUrl":"/saeb","rootCatId":279,"nickname":"صائب تبریزی","published":true,"imageUrl":"/api/ganjoor/poet/image/saeb.gif","birthYearInLHijri":1001,"validBirthDate":false,"deathYearInLHijri":1080,"validDeathDate":false,"pinOrder":0,"birthPlace":"اصفهان","birthPlaceLatitude":32.6539,"birthPlaceLongitude":51.666,"deathPlace":"","deathPlaceLatitude":0,"deathPlaceLongitude":0},{"id":174,"name":"صابر همدانی","description":null,"fullUrl":"/hamedani","rootCatId":3006,"nickname":"صابر همدانی","published":true,"imageUrl":"/api/ganjoor/poet/image/hamedani.gif","birthYearInLHijri":1321,"validBirthDate":true,"deathYearInLHijri":1375,"validDeathDate":true,"pinOrder":0,"birthPlace":"همدان","birthPlaceLatitude":34.7989,"birthPlaceLongitude":48.515,"deathPlace":"ری","deathPlaceLatitude":35.577,"deathPlaceLongitude":51.4625},{"id":74,"name":"صامت بروجردی","description":null,"fullUrl":"/samet","rootCatId":2098,"nickname":"صامت بروجردی","published":true,"imageUrl":"/api/ganjoor/poet/image/samet.gif","birthYearInLHijri":1263,"validBirthDate":false,"deathYearInLHijri":1333,"validDeathDate":false,"pinOrder":0,"birthPlace":"بروجرد","birthPlaceLatitude":33.8942,"birthPlaceLongitude":48.767,"deathPlace":"","deathPlaceLatitude":0,"deathPlaceLongitude":0},{"id":182,"name":"صغیر اصفهانی","description":null,"fullUrl":"/saghir","rootCatId":3074,"nickname":"صغیر اصفهانی","published":true,"imageUrl":"/api/ganjoor/poet/image/saghir.gif","birthYearInLHijri":1312,"validBirthDate":true,"deathYearInLHijri":1390,"validDeathDate":true,"pinOrder":0,"birthPlace":"اصفهان","birthPlaceLatitude":32.6539,"birthPlaceLongitude":51.666,"deathPlace":"اصفهان","deathPlaceLatitude":32.6539,"deathPlaceLongitude":51.666},{"id":108,"name":"صفای اصفهانی","description":null,"fullUrl":"/safa","rootCatId":2443,"nickname":"صفای اصفهانی","published":true,"imageUrl":"/api/ganjoor/poet/image/safa.gif","birthYearInLHijri":1269,"validBirthDate":false,"deathYearInLHijri":1322,"validDeathDate":false,"pinOrder":0,"birthPlace":"اصفهان","birthPlaceLatitude":32.6539,"birthPlaceLongitude":51.666,"deathPlace":"","deathPlaceLatitude":0,"deathPlaceLongitude":0},{"id":168,"name":"صفایی جندقی","description":null,"fullUrl":"/safayee","rootCatId":2955,"nickname":"صفایی جندقی","published":true,"imageUrl":"/api/ganjoor/poet/image/safayee.gif","birthYearInLHijri":1235,"validBirthDate":true,"deathYearInLHijri":1314,"validDeathDate":true,"pinOrder":0,"birthPlace":"جندق","birthPlaceLatitude":34.038313,"birthPlaceLongitude":54.413905,"deathPlace":"جندق","deathPlaceLatitude":34.038313,"deathPlaceLongitude":54.413905},{"id":187,"name":"صفی علیشاه","description":null,"fullUrl":"/safi","rootCatId":3124,"nickname":"صفی علیشاه","published":true,"imageUrl":"/api/ganjoor/poet/image/safi.gif","birthYearInLHijri":1251,"validBirthDate":true,"deathYearInLHijri":1316,"validDeathDate":true,"pinOrder":0,"birthPlace":"اصفهان","birthPlaceLatitude":32.6539,"birthPlaceLongitude":51.666,"deathPlace":"تهران","deathPlaceLatitude":35.6892,"deathPlaceLongitude":51.389},{"id":188,"name":"صوفی محمد هروی","description":null,"fullUrl":"/soofi","rootCatId":3133,"nickname":"صوفی محمد هروی","published":true,"imageUrl":"/api/ganjoor/poet/image/soofi.gif","birthYearInLHijri":801,"validBirthDate":false,"deathYearInLHijri":870,"validDeathDate":false,"pinOrder":0,"birthPlace":"هرات","birthPlaceLatitude":34.3529,"birthPlaceLongitude":62.204,"deathPlace":"","deathPlaceLatitude":0,"deathPlaceLongitude":0},{"id":138,"name":"طبیب اصفهانی","description":null,"fullUrl":"/tabib","rootCatId":2651,"nickname":"طبیب اصفهانی","published":true,"imageUrl":"/api/ganjoor/poet/image/tabib.gif","birthYearInLHijri":1120,"validBirthDate":false,"deathYearInLHijri":1171,"validDeathDate":true,"pinOrder":0,"birthPlace":"اصفهان","birthPlaceLatitude":32.6539,"birthPlaceLongitude":51.666,"deathPlace":"","deathPlaceLatitude":0,"deathPlaceLongitude":0},{"id":184,"name":"طغرای مشهدی","description":null,"fullUrl":"/toghra","rootCatId":3098,"nickname":"طغرای مشهدی","published":true,"imageUrl":"/api/ganjoor/poet/image/toghra.gif","birthYearInLHijri":1001,"validBirthDate":false,"deathYearInLHijri":1078,"validDeathDate":true,"pinOrder":0,"birthPlace":"مشهد","birthPlaceLatitude":36.2605,"birthPlaceLongitude":59.6168,"deathPlace":"","deathPlaceLatitude":0,"deathPlaceLongitude":0},{"id":150,"name":"طغرل احراری","description":null,"fullUrl":"/toghrol","rootCatId":2758,"nickname":"طغرل احراری","published":true,"imageUrl":"/api/ganjoor/poet/image/toghrol.gif","birthYearInLHijri":1282,"validBirthDate":true,"deathYearInLHijri":1338,"validDeathDate":true,"pinOrder":0,"birthPlace":"عینی","birthPlaceLatitude":39.3975,"birthPlaceLongitude":68.540556,"deathPlace":"","deathPlaceLatitude":0,"deathPlaceLongitude":0},{"id":69,"name":"ظهیر فاریابی","description":null,"fullUrl":"/zahir","rootCatId":2070,"nickname":"ظهیر فاریابی","published":true,"imageUrl":"/api/ganjoor/poet/image/zahir.gif","birthYearInLHijri":550,"validBirthDate":false,"deathYearInLHijri":598,"validDeathDate":false,"pinOrder":0,"birthPlace":"بلخ","birthPlaceLatitude":36.7551,"birthPlaceLongitude":66.8975,"deathPlace":"","deathPlaceLatitude":0,"deathPlaceLongitude":0},{"id":192,"name":"ظهیری سمرقندی","description":null,"fullUrl":"/zahiri","rootCatId":3158,"nickname":"ظهیری سمرقندی","published":true,"imageUrl":"/api/ganjoor/poet/image/zahiri.gif","birthYearInLHijri":550,"validBirthDate":false,"deathYearInLHijri":599,"validDeathDate":false,"pinOrder":0,"birthPlace":"","birthPlaceLatitude":0,"birthPlaceLongitude":0,"deathPlace":"","deathPlaceLatitude":0,"deathPlaceLongitude":0},{"id":68,"name":"عارف قزوینی","description":null,"fullUrl":"/aref","rootCatId":2067,"nickname":"عارف قزوینی","published":true,"imageUrl":"/api/ganjoor/poet/image/aref.gif","birthYearInLHijri":1297,"validBirthDate":false,"deathYearInLHijri":1352,"validDeathDate":false,"pinOrder":0,"birthPlace":"قزوین","birthPlaceLatitude":36.2737,"birthPlaceLongitude":49.9982,"deathPlace":"","deathPlaceLatitude":0,"deathPlaceLongitude":0},{"id":95,"name":"عبادی مروزی","description":null,"fullUrl":"/abbadi","rootCatId":2310,"nickname":"عبادی مروزی","published":true,"imageUrl":"/api/ganjoor/poet/image/abbadi.gif","birthYearInLHijri":491,"validBirthDate":false,"deathYearInLHijri":547,"validDeathDate":false,"pinOrder":0,"birthPlace":"مرو","birthPlaceLatitude":37.6644,"birthPlaceLongitude":62.1747,"deathPlace":"","deathPlaceLatitude":0,"deathPlaceLongitude":0},{"id":70,"name":"عبدالقادر گیلانی","description":null,"fullUrl":"/gilani","rootCatId":2079,"nickname":"عبدالقادر گیلانی","published":true,"imageUrl":"/api/ganjoor/poet/image/gilani.gif","birthYearInLHijri":470,"validBirthDate":false,"deathYearInLHijri":560,"validDeathDate":false,"pinOrder":0,"birthPlace":"لاهیجان","birthPlaceLatitude":37.207,"birthPlaceLongitude":50.0034,"deathPlace":"","deathPlaceLatitude":0,"deathPlaceLongitude":0},{"id":37,"name":"عبدالواسع جبلی","description":null,"fullUrl":"/jabali","rootCatId":688,"nickname":"عبدالواسع جبلی","published":true,"imageUrl":"/api/ganjoor/poet/image/jabali.gif","birthYearInLHijri":501,"validBirthDate":false,"deathYearInLHijri":555,"validDeathDate":false,"pinOrder":0,"birthPlace":"هرات","birthPlaceLatitude":34.3529,"birthPlaceLongitude":62.204,"deathPlace":"","deathPlaceLatitude":0,"deathPlaceLongitude":0},{"id":33,"name":"عبید زاکانی","description":null,"fullUrl":"/obeyd","rootCatId":344,"nickname":"عبید زاکانی","published":true,"imageUrl":"/api/ganjoor/poet/image/obeyd.gif","birthYearInLHijri":701,"validBirthDate":false,"deathYearInLHijri":772,"validDeathDate":false,"pinOrder":0,"birthPlace":"قزوین","birthPlaceLatitude":36.2737,"birthPlaceLongitude":49.9982,"deathPlace":"","deathPlaceLatitude":0,"deathPlaceLongitude":0},{"id":109,"name":"عثمان مختاری","description":null,"fullUrl":"/mokhtari","rootCatId":2450,"nickname":"عثمان مختاری","published":true,"imageUrl":"/api/ganjoor/poet/image/mokhtari.gif","birthYearInLHijri":457,"validBirthDate":true,"deathYearInLHijri":548,"validDeathDate":true,"pinOrder":0,"birthPlace":"غزنه","birthPlaceLatitude":33.5451,"birthPlaceLongitude":68.4174,"deathPlace":"","deathPlaceLatitude":0,"deathPlaceLongitude":0},{"id":21,"name":"عراقی","description":null,"fullUrl":"/eraghi","rootCatId":259,"nickname":"عراقی","published":true,"imageUrl":"/api/ganjoor/poet/image/eraghi.gif","birthYearInLHijri":601,"validBirthDate":false,"deathYearInLHijri":688,"validDeathDate":false,"pinOrder":0,"birthPlace":"همدان","birthPlaceLatitude":34.7989,"birthPlaceLongitude":48.515,"deathPlace":"","deathPlaceLatitude":0,"deathPlaceLongitude":0},{"id":46,"name":"عرفی شیرازی","description":null,"fullUrl":"/orfi","rootCatId":1678,"nickname":"عرفی","published":true,"imageUrl":"/api/ganjoor/poet/image/orfi.gif","birthYearInLHijri":963,"validBirthDate":false,"deathYearInLHijri":999,"validDeathDate":false,"pinOrder":0,"birthPlace":"شیراز","birthPlaceLatitude":29.5926,"birthPlaceLongitude":52.5836,"deathPlace":"","deathPlaceLatitude":0,"deathPlaceLongitude":0},{"id":125,"name":"عسجدی مروزی","description":null,"fullUrl":"/asjadi","rootCatId":2576,"nickname":"عسجدی","published":true,"imageUrl":"/api/ganjoor/poet/image/asjadi.gif","birthYearInLHijri":380,"validBirthDate":false,"deathYearInLHijri":432,"validDeathDate":true,"pinOrder":0,"birthPlace":"مرو","birthPlaceLatitude":37.6644,"birthPlaceLongitude":62.1747,"deathPlace":"","deathPlaceLatitude":0,"deathPlaceLongitude":0},{"id":9,"name":"عطار نیشابوری","description":null,"fullUrl":"/attar","rootCatId":151,"nickname":"عطار","published":true,"imageUrl":"/api/ganjoor/poet/image/attar.gif","birthYearInLHijri":540,"validBirthDate":false,"deathYearInLHijri":618,"validDeathDate":false,"pinOrder":0,"birthPlace":"نیشابور","birthPlaceLatitude":36.2141,"birthPlaceLongitude":58.7961,"deathPlace":"","deathPlaceLatitude":0,"deathPlaceLongitude":0},{"id":59,"name":"عمان سامانی","description":null,"fullUrl":"/omman","rootCatId":1901,"nickname":"عمان سامانی","published":true,"imageUrl":"/api/ganjoor/poet/image/omman.gif","birthYearInLHijri":1258,"validBirthDate":false,"deathYearInLHijri":1322,"validDeathDate":false,"pinOrder":0,"birthPlace":"سامان","birthPlaceLatitude":32.4514,"birthPlaceLongitude":50.9117,"deathPlace":"","deathPlaceLatitude":0,"deathPlaceLongitude":0},{"id":136,"name":"عمعق بخاری","description":null,"fullUrl":"/amagh","rootCatId":2639,"nickname":"عمعق بخاری","published":true,"imageUrl":"/api/ganjoor/poet/image/amagh.gif","birthYearInLHijri":440,"validBirthDate":true,"deathYearInLHijri":542,"validDeathDate":true,"pinOrder":0,"birthPlace":"بخارا","birthPlaceLatitude":39.7681,"birthPlaceLongitude":64.4556,"deathPlace":"","deathPlaceLatitude":0,"deathPlaceLongitude":0},{"id":82,"name":"عنصرالمعالی کیکاووس","description":null,"fullUrl":"/keikavus","rootCatId":2219,"nickname":"عنصرالمعالی","published":true,"imageUrl":"/api/ganjoor/poet/image/keikavus.gif","birthYearInLHijri":412,"validBirthDate":false,"deathYearInLHijri":480,"validDeathDate":false,"pinOrder":0,"birthPlace":"لاهیجان","birthPlaceLatitude":37.207,"birthPlaceLongitude":50.0034,"deathPlace":"","deathPlaceLatitude":0,"deathPlaceLongitude":0},{"id":62,"name":"عنصری بلخی","description":null,"fullUrl":"/onsori","rootCatId":2026,"nickname":"عنصری","published":true,"imageUrl":"/api/ganjoor/poet/image/onsori.gif","birthYearInLHijri":350,"validBirthDate":false,"deathYearInLHijri":431,"validDeathDate":false,"pinOrder":0,"birthPlace":"بلخ","birthPlaceLatitude":36.7551,"birthPlaceLongitude":66.8975,"deathPlace":"","deathPlaceLatitude":0,"deathPlaceLongitude":0},{"id":94,"name":"عین‌القضات همدانی","description":null,"fullUrl":"/eynolghozat","rootCatId":2307,"nickname":"عین‌القضات همدانی","published":true,"imageUrl":"/api/ganjoor/poet/image/eynolghozat.gif","birthYearInLHijri":492,"validBirthDate":false,"deathYearInLHijri":525,"validDeathDate":false,"pinOrder":0,"birthPlace":"همدان","birthPlaceLatitude":34.7989,"birthPlaceLongitude":48.515,"deathPlace":"","deathPlaceLatitude":0,"deathPlaceLongitude":0},{"id":124,"name":"عیوقی","description":null,"fullUrl":"/ayyooghi","rootCatId":2574,"nickname":"عیوقی","published":true,"imageUrl":"/api/ganjoor/poet/image/ayyooghi.gif","birthYearInLHijri":360,"validBirthDate":false,"deathYearInLHijri":420,"validDeathDate":false,"pinOrder":0,"birthPlace":"","birthPlaceLatitude":0,"birthPlaceLongitude":0,"deathPlace":"","deathPlaceLatitude":0,"deathPlaceLongitude":0},{"id":123,"name":"غالب دهلوی","description":null,"fullUrl":"/ghaleb","rootCatId":2570,"nickname":"غالب دهلوی","published":true,"imageUrl":"/api/ganjoor/poet/image/ghaleb.gif","birthYearInLHijri":1212,"validBirthDate":true,"deathYearInLHijri":1285,"validDeathDate":true,"pinOrder":0,"birthPlace":"آگره","birthPlaceLatitude":27.18,"birthPlaceLongitude":78.02,"deathPlace":"دهلی","deathPlaceLatitude":28.7041,"deathPlaceLongitude":77.1025},{"id":77,"name":"غبار همدانی","description":null,"fullUrl":"/ghobar","rootCatId":2193,"nickname":"غبار همدانی","published":true,"imageUrl":"/api/ganjoor/poet/image/ghobar.gif","birthYearInLHijri":1265,"validBirthDate":false,"deathYearInLHijri":1322,"validDeathDate":false,"pinOrder":0,"birthPlace":"همدان","birthPlaceLatitude":34.7989,"birthPlaceLongitude":48.515,"deathPlace":"","deathPlaceLatitude":0,"deathPlaceLongitude":0},{"id":87,"name":"محمدحسین غروی اصفهانی","description":null,"fullUrl":"/moftagher","rootCatId":2245,"nickname":"غروی اصفهانی","published":true,"imageUrl":"/api/ganjoor/poet/image/moftagher.gif","birthYearInLHijri":1296,"validBirthDate":false,"deathYearInLHijri":1361,"validDeathDate":false,"pinOrder":0,"birthPlace":"اصفهان","birthPlaceLatitude":32.6539,"birthPlaceLongitude":51.666,"deathPlace":"","deathPlaceLatitude":0,"deathPlaceLongitude":0},{"id":160,"name":"امام محمد غزالی","description":null,"fullUrl":"/ghazzali","rootCatId":2849,"nickname":"غزالی","published":true,"imageUrl":"/api/ganjoor/poet/image/ghazzali.gif","birthYearInLHijri":450,"validBirthDate":true,"deathYearInLHijri":505,"validDeathDate":true,"pinOrder":0,"birthPlace":"مشهد","birthPlaceLatitude":36.2605,"birthPlaceLongitude":59.6168,"deathPlace":"مشهد","deathPlaceLatitude":36.2605,"deathPlaceLongitude":59.6168},{"id":61,"name":"فایز","description":null,"fullUrl":"/fayez","rootCatId":2020,"nickname":"فایز","published":true,"imageUrl":"/api/ganjoor/poet/image/fayez.gif","birthYearInLHijri":1250,"validBirthDate":false,"deathYearInLHijri":1328,"validDeathDate":false,"pinOrder":0,"birthPlace":"دشتی","birthPlaceLatitude":28.48685,"birthPlaceLongitude":51.56182,"deathPlace":"","deathPlaceLatitude":0,"deathPlaceLongitude":0},{"id":38,"name":"فخرالدین اسعد گرگانی","description":null,"fullUrl":"/asad","rootCatId":722,"nickname":"فخرالدین اسعد گرگانی","published":true,"imageUrl":"/api/ganjoor/poet/image/asad.gif","birthYearInLHijri":401,"validBirthDate":false,"deathYearInLHijri":446,"validDeathDate":false,"pinOrder":0,"birthPlace":"گرگان","birthPlaceLatitude":36.8456,"birthPlaceLongitude":54.4393,"deathPlace":"","deathPlaceLatitude":0,"deathPlaceLongitude":0},{"id":15,"name":"فرخی سیستانی","description":null,"fullUrl":"/farrokhi","rootCatId":222,"nickname":"فرخی سیستانی","published":true,"imageUrl":"/api/ganjoor/poet/image/farrokhi.gif","birthYearInLHijri":380,"validBirthDate":false,"deathYearInLHijri":429,"validDeathDate":false,"pinOrder":0,"birthPlace":"زابل","birthPlaceLatitude":31.0324,"birthPlaceLongitude":61.4902,"deathPlace":"","deathPlaceLatitude":0,"deathPlaceLongitude":0},{"id":134,"name":"فرخی یزدی","description":null,"fullUrl":"/yazdi","rootCatId":2628,"nickname":"فرخی یزدی","published":true,"imageUrl":"/api/ganjoor/poet/image/yazdi.gif","birthYearInLHijri":1307,"validBirthDate":true,"deathYearInLHijri":1358,"validDeathDate":true,"pinOrder":0,"birthPlace":"یزد","birthPlaceLatitude":31.8974,"birthPlaceLongitude":54.3569,"deathPlace":"تهران","deathPlaceLatitude":35.6892,"deathPlaceLongitude":51.389},{"id":4,"name":"ابوالقاسم فردوسی","description":null,"fullUrl":"/ferdousi","rootCatId":32,"nickname":"فردوسی","published":true,"imageUrl":"/api/ganjoor/poet/image/ferdousi.gif","birthYearInLHijri":329,"validBirthDate":false,"deathYearInLHijri":411,"validDeathDate":false,"pinOrder":4,"birthPlace":"مشهد","birthPlaceLatitude":36.2605,"birthPlaceLongitude":59.6168,"deathPlace":"","deathPlaceLatitude":0,"deathPlaceLongitude":0},{"id":32,"name":"فروغی بسطامی","description":null,"fullUrl":"/forooghi","rootCatId":339,"nickname":"فروغی بسطامی","published":true,"imageUrl":"/api/ganjoor/poet/image/forooghi.gif","birthYearInLHijri":1213,"validBirthDate":false,"deathYearInLHijri":1274,"validDeathDate":false,"pinOrder":0,"birthPlace":"بسطام","birthPlaceLatitude":36.485278,"birthPlaceLongitude":54.99972,"deathPlace":"","deathPlaceLatitude":0,"deathPlaceLongitude":0},{"id":185,"name":"فصیحی هروی","description":null,"fullUrl":"/fasihi","rootCatId":3106,"nickname":"فصیحی هروی","published":true,"imageUrl":"/api/ganjoor/poet/image/fasihi.gif","birthYearInLHijri":987,"validBirthDate":false,"deathYearInLHijri":1049,"validDeathDate":true,"pinOrder":0,"birthPlace":"بخارا","birthPlaceLatitude":39.7681,"birthPlaceLongitude":64.4556,"deathPlace":"هرات","deathPlaceLatitude":34.3529,"deathPlaceLongitude":62.204},{"id":145,"name":"فضولی بغدادی","description":null,"fullUrl":"/fozooli","rootCatId":2701,"nickname":"فضولی","published":true,"imageUrl":"/api/ganjoor/poet/image/fozooli.gif","birthYearInLHijri":885,"validBirthDate":true,"deathYearInLHijri":963,"validDeathDate":true,"pinOrder":0,"birthPlace":"حله","birthPlaceLatitude":32.483333,"birthPlaceLongitude":44.433333,"deathPlace":"کربلا","deathPlaceLatitude":32.6027,"deathPlaceLongitude":44.0197},{"id":141,"name":"فلکی شروانی","description":null,"fullUrl":"/falaki","rootCatId":2670,"nickname":"فلکی شروانی","published":true,"imageUrl":"/api/ganjoor/poet/image/falaki.gif","birthYearInLHijri":501,"validBirthDate":true,"deathYearInLHijri":540,"validDeathDate":true,"pinOrder":0,"birthPlace":"شماخی","birthPlaceLatitude":40.630278,"birthPlaceLongitude":48.641389,"deathPlace":"","deathPlaceLatitude":0,"deathPlaceLongitude":0},{"id":172,"name":"فیاض لاهیجی","description":null,"fullUrl":"/fayyaz","rootCatId":2989,"nickname":"فیاض لاهیجی","published":true,"imageUrl":"/api/ganjoor/poet/image/fayyaz.gif","birthYearInLHijri":1016,"validBirthDate":false,"deathYearInLHijri":1072,"validDeathDate":true,"pinOrder":0,"birthPlace":"لاهیجان","birthPlaceLatitude":37.207,"birthPlaceLongitude":50.0034,"deathPlace":"قم","deathPlaceLatitude":34.6416,"deathPlaceLongitude":50.8746},{"id":39,"name":"فیض کاشانی","description":null,"fullUrl":"/feyz","rootCatId":1125,"nickname":"فیض کاشانی","published":true,"imageUrl":"/api/ganjoor/poet/image/feyz.gif","birthYearInLHijri":1007,"validBirthDate":false,"deathYearInLHijri":1090,"validDeathDate":false,"pinOrder":0,"birthPlace":"کاشان","birthPlaceLatitude":33.985,"birthPlaceLongitude":51.41,"deathPlace":"","deathPlaceLatitude":0,"deathPlaceLongitude":0},{"id":44,"name":"قاآنی","description":null,"fullUrl":"/ghaani","rootCatId":1508,"nickname":"قاآنی","published":true,"imageUrl":"/api/ganjoor/poet/image/ghaani.gif","birthYearInLHijri":1223,"validBirthDate":false,"deathYearInLHijri":1270,"validDeathDate":false,"pinOrder":0,"birthPlace":"شیراز","birthPlaceLatitude":29.5926,"birthPlaceLongitude":52.5836,"deathPlace":"","deathPlaceLatitude":0,"deathPlaceLongitude":0},{"id":98,"name":"قائم مقام فراهانی","description":null,"fullUrl":"/ghaemmagham","rootCatId":2361,"nickname":"قائم مقام فراهانی","published":true,"imageUrl":"/api/ganjoor/poet/image/ghaemmagham.gif","birthYearInLHijri":1193,"validBirthDate":false,"deathYearInLHijri":1251,"validDeathDate":false,"pinOrder":0,"birthPlace":"مهرآباد اراک","birthPlaceLatitude":34.201667,"birthPlaceLongitude":49.569167,"deathPlace":"","deathPlaceLatitude":0,"deathPlaceLongitude":0},{"id":129,"name":"قاسم انوار","description":null,"fullUrl":"/ghasem","rootCatId":2597,"nickname":"قاسم انوار","published":true,"imageUrl":"/api/ganjoor/poet/image/ghasem.gif","birthYearInLHijri":757,"validBirthDate":true,"deathYearInLHijri":837,"validDeathDate":true,"pinOrder":0,"birthPlace":"سراب","birthPlaceLatitude":37.9264,"birthPlaceLongitude":47.5481,"deathPlace":"خرجرد جام","deathPlaceLatitude":34.5331,"deathPlaceLongitude":60.1789},{"id":71,"name":"قدسی مشهدی","description":null,"fullUrl":"/ghodsi","rootCatId":2082,"nickname":"قدسی مشهدی","published":true,"imageUrl":"/api/ganjoor/poet/image/ghodsi.gif","birthYearInLHijri":1001,"validBirthDate":false,"deathYearInLHijri":1056,"validDeathDate":false,"pinOrder":0,"birthPlace":"مشهد","birthPlaceLatitude":36.2605,"birthPlaceLongitude":59.6168,"deathPlace":"","deathPlaceLatitude":0,"deathPlaceLongitude":0},{"id":86,"name":"قصاب کاشانی","description":null,"fullUrl":"/ghassab","rootCatId":2240,"nickname":"قصاب کاشانی","published":true,"imageUrl":"/api/ganjoor/poet/image/ghassab.gif","birthYearInLHijri":1101,"validBirthDate":false,"deathYearInLHijri":1165,"validDeathDate":false,"pinOrder":0,"birthPlace":"کاشان","birthPlaceLatitude":33.985,"birthPlaceLongitude":51.41,"deathPlace":"","deathPlaceLatitude":0,"deathPlaceLongitude":0},{"id":142,"name":"قطران تبریزی","description":null,"fullUrl":"/ghatran","rootCatId":2678,"nickname":"قطران تبریزی","published":true,"imageUrl":"/api/ganjoor/poet/image/ghatran.gif","birthYearInLHijri":401,"validBirthDate":false,"deathYearInLHijri":465,"validDeathDate":true,"pinOrder":0,"birthPlace":"تبریز","birthPlaceLatitude":38.0962,"birthPlaceLongitude":46.2738,"deathPlace":"تبریز","deathPlaceLatitude":38.0962,"deathPlaceLongitude":46.2738},{"id":179,"name":"قوامی رازی","description":null,"fullUrl":"/ghavami","rootCatId":3061,"nickname":"قوامی رازی","published":true,"imageUrl":"/api/ganjoor/poet/image/ghavami.gif","birthYearInLHijri":499,"validBirthDate":false,"deathYearInLHijri":559,"validDeathDate":false,"pinOrder":0,"birthPlace":"ری","birthPlaceLatitude":35.577,"birthPlaceLongitude":51.4625,"deathPlace":"","deathPlaceLatitude":0,"deathPlaceLongitude":0},{"id":45,"name":"کسایی مروزی","description":null,"fullUrl":"/kesayee","rootCatId":1674,"nickname":"کسایی","published":true,"imageUrl":"/api/ganjoor/poet/image/kesayee.gif","birthYearInLHijri":341,"validBirthDate":false,"deathYearInLHijri":394,"validDeathDate":false,"pinOrder":0,"birthPlace":"مرو","birthPlaceLatitude":37.6644,"birthPlaceLongitude":62.1747,"deathPlace":"","deathPlaceLatitude":0,"deathPlaceLongitude":0},{"id":100,"name":"کلیم","description":null,"fullUrl":"/kalim","rootCatId":2374,"nickname":"کلیم","published":true,"imageUrl":"/api/ganjoor/poet/image/kalim.gif","birthYearInLHijri":990,"validBirthDate":false,"deathYearInLHijri":1061,"validDeathDate":false,"pinOrder":0,"birthPlace":"همدان","birthPlaceLatitude":34.7989,"birthPlaceLongitude":48.515,"deathPlace":"","deathPlaceLatitude":0,"deathPlaceLongitude":0},{"id":73,"name":"کمال خجندی","description":null,"fullUrl":"/khojandi","rootCatId":2091,"nickname":"کمال خجندی","published":true,"imageUrl":"/api/ganjoor/poet/image/khojandi.gif","birthYearInLHijri":701,"validBirthDate":false,"deathYearInLHijri":808,"validDeathDate":false,"pinOrder":0,"birthPlace":"خجند","birthPlaceLatitude":40.2735,"birthPlaceLongitude":69.6392,"deathPlace":"","deathPlaceLatitude":0,"deathPlaceLongitude":0},{"id":67,"name":"کمال‌الدین اسماعیل","description":null,"fullUrl":"/kamal","rootCatId":2059,"nickname":"کمال‌الدین اسماعیل","published":true,"imageUrl":"/api/ganjoor/poet/image/kamal.gif","birthYearInLHijri":568,"validBirthDate":false,"deathYearInLHijri":635,"validDeathDate":false,"pinOrder":0,"birthPlace":"اصفهان","birthPlaceLatitude":32.6539,"birthPlaceLongitude":51.666,"deathPlace":"","deathPlaceLatitude":0,"deathPlaceLongitude":0},{"id":171,"name":"کوهی","description":null,"fullUrl":"/koohi","rootCatId":2986,"nickname":"کوهی","published":true,"imageUrl":"/api/ganjoor/poet/image/koohi.gif","birthYearInLHijri":851,"validBirthDate":false,"deathYearInLHijri":899,"validDeathDate":false,"pinOrder":0,"birthPlace":"","birthPlaceLatitude":0,"birthPlaceLongitude":0,"deathPlace":"","deathPlaceLatitude":0,"deathPlaceLongitude":0},{"id":180,"name":"لبیبی","description":null,"fullUrl":"/labibi","rootCatId":3063,"nickname":"لبیبی","published":true,"imageUrl":"/api/ganjoor/poet/image/labibi.gif","birthYearInLHijri":401,"validBirthDate":false,"deathYearInLHijri":450,"validDeathDate":false,"pinOrder":0,"birthPlace":"","birthPlaceLatitude":0,"birthPlaceLongitude":0,"deathPlace":"","deathPlaceLatitude":0,"deathPlaceLongitude":0},{"id":152,"name":"مجد همگر","description":null,"fullUrl":"/hamgar","rootCatId":2775,"nickname":"مجد همگر","published":true,"imageUrl":"/api/ganjoor/poet/image/hamgar.gif","birthYearInLHijri":607,"validBirthDate":true,"deathYearInLHijri":686,"validDeathDate":true,"pinOrder":0,"birthPlace":"یزد","birthPlaceLatitude":31.8974,"birthPlaceLongitude":54.3569,"deathPlace":"اصفهان","deathPlaceLatitude":32.6539,"deathPlaceLongitude":51.666},{"id":140,"name":"مجیرالدین بیلقانی","description":null,"fullUrl":"/beylaghani","rootCatId":2661,"nickname":"مجیرالدین بیلقانی","published":true,"imageUrl":"/api/ganjoor/poet/image/beylaghani.gif","birthYearInLHijri":501,"validBirthDate":false,"deathYearInLHijri":586,"validDeathDate":true,"pinOrder":0,"birthPlace":"بیلقان","birthPlaceLatitude":39.7723,"birthPlaceLongitude":47.6154,"deathPlace":"تبریز","deathPlaceLatitude":38.0962,"deathPlaceLongitude":46.2738},{"id":29,"name":"محتشم کاشانی","description":null,"fullUrl":"/mohtasham","rootCatId":317,"nickname":"محتشم کاشانی","published":true,"imageUrl":"/api/ganjoor/poet/image/mohtasham.gif","birthYearInLHijri":905,"validBirthDate":false,"deathYearInLHijri":996,"validDeathDate":false,"pinOrder":0,"birthPlace":"کاشان","birthPlaceLatitude":33.985,"birthPlaceLongitude":51.41,"deathPlace":"","deathPlaceLatitude":0,"deathPlaceLongitude":0},{"id":96,"name":"محمد بن منور","description":null,"fullUrl":"/mmon","rootCatId":2312,"nickname":"محمد بن منور","published":true,"imageUrl":"/api/ganjoor/poet/image/mmon.gif","birthYearInLHijri":501,"validBirthDate":false,"deathYearInLHijri":570,"validDeathDate":false,"pinOrder":0,"birthPlace":"میهنه","birthPlaceLatitude":36.871667,"birthPlaceLongitude":60.404167,"deathPlace":"","deathPlaceLatitude":0,"deathPlaceLongitude":0},{"id":159,"name":"محمد کوسج","description":null,"fullUrl":"/koosaj","rootCatId":2847,"nickname":"محمد کوسج","published":true,"imageUrl":"/api/ganjoor/poet/image/koosaj.gif","birthYearInLHijri":760,"validBirthDate":false,"deathYearInLHijri":790,"validDeathDate":false,"pinOrder":0,"birthPlace":"","birthPlaceLatitude":0,"birthPlaceLongitude":0,"deathPlace":"","deathPlaceLatitude":0,"deathPlaceLongitude":0},{"id":113,"name":"محیط قمی","description":null,"fullUrl":"/mohit","rootCatId":2469,"nickname":"محیط قمی","published":true,"imageUrl":"/api/ganjoor/poet/image/mohit.gif","birthYearInLHijri":1250,"validBirthDate":true,"deathYearInLHijri":1317,"validDeathDate":true,"pinOrder":0,"birthPlace":"قم","birthPlaceLatitude":34.6416,"birthPlaceLongitude":50.8746,"deathPlace":"قم","deathPlaceLatitude":34.6416,"deathPlaceLongitude":50.8746},{"id":17,"name":"مسعود سعد سلمان","description":null,"fullUrl":"/masood","rootCatId":237,"nickname":"مسعود سعد سلمان","published":true,"imageUrl":"/api/ganjoor/poet/image/masood.gif","birthYearInLHijri":438,"validBirthDate":false,"deathYearInLHijri":515,"validDeathDate":false,"pinOrder":0,"birthPlace":"لاهور","birthPlaceLatitude":31.5204,"birthPlaceLongitude":74.3587,"deathPlace":"","deathPlaceLatitude":0,"deathPlaceLongitude":0},{"id":154,"name":"مشتاق اصفهانی","description":null,"fullUrl":"/moshtagh","rootCatId":2796,"nickname":"مشتاق اصفهانی","published":true,"imageUrl":"/api/ganjoor/poet/image/moshtagh.gif","birthYearInLHijri":1101,"validBirthDate":true,"deathYearInLHijri":1169,"validDeathDate":true,"pinOrder":0,"birthPlace":"اصفهان","birthPlaceLatitude":32.6539,"birthPlaceLongitude":51.666,"deathPlace":"اصفهان","deathPlaceLatitude":32.6539,"deathPlaceLongitude":51.666},{"id":132,"name":"ملا احمد نراقی","description":null,"fullUrl":"/naraghi","rootCatId":2617,"nickname":"ملا احمد نراقی","published":true,"imageUrl":"/api/ganjoor/poet/image/naraghi.gif","birthYearInLHijri":1185,"validBirthDate":true,"deathYearInLHijri":1245,"validDeathDate":true,"pinOrder":0,"birthPlace":"نراق","birthPlaceLatitude":34.01,"birthPlaceLongitude":50.8475,"deathPlace":"کاشان","deathPlaceLatitude":33.985,"deathPlaceLongitude":51.41},{"id":90,"name":"ملا مسیح پانی‌پتی","description":null,"fullUrl":"/masih","rootCatId":2291,"nickname":"ملا مسیح","published":true,"imageUrl":"/api/ganjoor/poet/image/masih.gif","birthYearInLHijri":1001,"validBirthDate":false,"deathYearInLHijri":1090,"validDeathDate":false,"pinOrder":0,"birthPlace":"پانی‌پت","birthPlaceLatitude":29.3909,"birthPlaceLongitude":76.9635,"deathPlace":"","deathPlaceLatitude":0,"deathPlaceLongitude":0},{"id":27,"name":"ملک‌الشعرا بهار","description":null,"fullUrl":"/bahar","rootCatId":307,"nickname":"ملک‌الشعرا بهار","published":true,"imageUrl":"/api/ganjoor/poet/image/bahar.gif","birthYearInLHijri":1302,"validBirthDate":false,"deathYearInLHijri":1371,"validDeathDate":false,"pinOrder":0,"birthPlace":"مشهد","birthPlaceLatitude":36.2605,"birthPlaceLongitude":59.6168,"deathPlace":"","deathPlaceLatitude":0,"deathPlaceLongitude":0},{"id":14,"name":"منوچهری دامغانی","description":null,"fullUrl":"/manoochehri","rootCatId":216,"nickname":"منوچهری","published":true,"imageUrl":"/api/ganjoor/poet/image/manoochehri.gif","birthYearInLHijri":401,"validBirthDate":false,"deathYearInLHijri":432,"validDeathDate":false,"pinOrder":0,"birthPlace":"دامغان","birthPlaceLatitude":36.1646,"birthPlaceLongitude":54.3576,"deathPlace":"","deathPlaceLatitude":0,"deathPlaceLongitude":0},{"id":5,"name":"جلال الدین محمد مولوی","description":null,"fullUrl":"/moulavi","rootCatId":97,"nickname":"مولانا","published":true,"imageUrl":"/api/ganjoor/poet/image/moulavi.gif","birthYearInLHijri":604,"validBirthDate":false,"deathYearInLHijri":672,"validDeathDate":false,"pinOrder":3,"birthPlace":"بلخ","birthPlaceLatitude":36.7551,"birthPlaceLongitude":66.8975,"deathPlace":"","deathPlaceLatitude":0,"deathPlaceLongitude":0},{"id":54,"name":"مهستی گنجوی","description":null,"fullUrl":"/mahsati","rootCatId":1809,"nickname":"مهستی گنجوی","published":true,"imageUrl":"/api/ganjoor/poet/image/mahsati.gif","birthYearInLHijri":501,"validBirthDate":false,"deathYearInLHijri":577,"validDeathDate":false,"pinOrder":0,"birthPlace":"گنجه","birthPlaceLatitude":40.6879,"birthPlaceLongitude":46.3723,"deathPlace":"","deathPlaceLatitude":0,"deathPlaceLongitude":0},{"id":60,"name":"رشیدالدین میبدی","description":null,"fullUrl":"/meybodi","rootCatId":1904,"nickname":"میبدی","published":true,"imageUrl":"/api/ganjoor/poet/image/meybodi.gif","birthYearInLHijri":501,"validBirthDate":false,"deathYearInLHijri":550,"validDeathDate":false,"pinOrder":0,"birthPlace":"میبد","birthPlaceLatitude":32.2487,"birthPlaceLongitude":54.0079,"deathPlace":"","deathPlaceLatitude":0,"deathPlaceLongitude":0},{"id":186,"name":"میرداماد","description":null,"fullUrl":"/mir","rootCatId":3116,"nickname":"میرداماد","published":true,"imageUrl":"/api/ganjoor/poet/image/mir.gif","birthYearInLHijri":969,"validBirthDate":true,"deathYearInLHijri":1040,"validDeathDate":true,"pinOrder":0,"birthPlace":"گرگان","birthPlaceLatitude":36.8456,"birthPlaceLongitude":54.4393,"deathPlace":"نجف","deathPlaceLatitude":32.0107,"deathPlaceLongitude":44.3265},{"id":139,"name":"میرزا آقاخان کرمانی","description":null,"fullUrl":"/aghakhan","rootCatId":2659,"nickname":"میرزا آقاخان کرمانی","published":true,"imageUrl":"/api/ganjoor/poet/image/aghakhan.gif","birthYearInLHijri":1270,"validBirthDate":true,"deathYearInLHijri":1315,"validDeathDate":true,"pinOrder":0,"birthPlace":"بردسیر","birthPlaceLatitude":29.9264,"birthPlaceLongitude":56.575,"deathPlace":"","deathPlaceLatitude":0,"deathPlaceLongitude":0},{"id":170,"name":"میرزا حبیب خراسانی","description":null,"fullUrl":"/habib","rootCatId":2977,"nickname":"میرزا حبیب خراسانی","published":true,"imageUrl":"/api/ganjoor/poet/image/habib.gif","birthYearInLHijri":1266,"validBirthDate":true,"deathYearInLHijri":1327,"validDeathDate":true,"pinOrder":0,"birthPlace":"مشهد","birthPlaceLatitude":36.2605,"birthPlaceLongitude":59.6168,"deathPlace":"مشهد","deathPlaceLatitude":36.2605,"deathPlaceLongitude":59.6168},{"id":153,"name":"میرزاده عشقی","description":null,"fullUrl":"/eshghi","rootCatId":2784,"nickname":"میرزاده عشقی","published":true,"imageUrl":"/api/ganjoor/poet/image/eshghi.gif","birthYearInLHijri":1312,"validBirthDate":true,"deathYearInLHijri":1343,"validDeathDate":true,"pinOrder":0,"birthPlace":"همدان","birthPlaceLatitude":34.7989,"birthPlaceLongitude":48.515,"deathPlace":"تهران","deathPlaceLatitude":35.6892,"deathPlaceLongitude":51.389},{"id":183,"name":"میلی","description":null,"fullUrl":"/meyli","rootCatId":3085,"nickname":"میلی","published":true,"imageUrl":"/api/ganjoor/poet/image/meyli.gif","birthYearInLHijri":940,"validBirthDate":false,"deathYearInLHijri":984,"validDeathDate":true,"pinOrder":0,"birthPlace":"مشهد","birthPlaceLatitude":36.2605,"birthPlaceLongitude":59.6168,"deathPlace":"مشهد","deathPlaceLatitude":36.2605,"deathPlaceLongitude":59.6168},{"id":13,"name":"ناصرخسرو قبادیانی","description":null,"fullUrl":"/naserkhosro","rootCatId":212,"nickname":"ناصرخسرو","published":true,"imageUrl":"/api/ganjoor/poet/image/naserkhosro.gif","birthYearInLHijri":394,"validBirthDate":false,"deathYearInLHijri":481,"validDeathDate":false,"pinOrder":0,"birthPlace":"بلخ","birthPlaceLatitude":36.7551,"birthPlaceLongitude":66.8975,"deathPlace":"","deathPlaceLatitude":0,"deathPlaceLongitude":0},{"id":102,"name":"نجم‌الدین رازی","description":null,"fullUrl":"/daye","rootCatId":2396,"nickname":"نجم‌الدین رازی","published":true,"imageUrl":"/api/ganjoor/poet/image/daye.gif","birthYearInLHijri":573,"validBirthDate":false,"deathYearInLHijri":654,"validDeathDate":false,"pinOrder":0,"birthPlace":"ری","birthPlaceLatitude":35.577,"birthPlaceLongitude":51.4625,"deathPlace":"","deathPlaceLatitude":0,"deathPlaceLongitude":0},{"id":146,"name":"عمادالدین نسیمی","description":null,"fullUrl":"/nasimi","rootCatId":2709,"nickname":"نسیمی","published":true,"imageUrl":"/api/ganjoor/poet/image/nasimi.gif","birthYearInLHijri":747,"validBirthDate":true,"deathYearInLHijri":807,"validDeathDate":true,"pinOrder":0,"birthPlace":"بغداد","birthPlaceLatitude":33.3152,"birthPlaceLongitude":44.3661,"deathPlace":"حلب","deathPlaceLatitude":36.2021,"deathPlaceLongitude":37.1343},{"id":149,"name":"نشاط اصفهانی","description":null,"fullUrl":"/neshat","rootCatId":2747,"nickname":"نشاط اصفهانی","published":true,"imageUrl":"/api/ganjoor/poet/image/neshat.gif","birthYearInLHijri":1175,"validBirthDate":true,"deathYearInLHijri":1244,"validDeathDate":true,"pinOrder":0,"birthPlace":"اصفهان","birthPlaceLatitude":32.6539,"birthPlaceLongitude":51.666,"deathPlace":"","deathPlaceLatitude":0,"deathPlaceLongitude":0},{"id":49,"name":"نصرالله منشی","description":null,"fullUrl":"/monshi","rootCatId":1689,"nickname":"نصرالله منشی","published":true,"imageUrl":"/api/ganjoor/poet/image/monshi.gif","birthYearInLHijri":501,"validBirthDate":false,"deathYearInLHijri":559,"validDeathDate":false,"pinOrder":0,"birthPlace":"","birthPlaceLatitude":0,"birthPlaceLongitude":0,"deathPlace":"","deathPlaceLatitude":0,"deathPlaceLongitude":0},{"id":169,"name":"نظام قاری","description":null,"fullUrl":"/ghari","rootCatId":2965,"nickname":"نظام قاری","published":true,"imageUrl":"/api/ganjoor/poet/image/ghari.gif","birthYearInLHijri":810,"validBirthDate":false,"deathYearInLHijri":893,"validDeathDate":true,"pinOrder":0,"birthPlace":"یزد","birthPlaceLatitude":31.8974,"birthPlaceLongitude":54.3569,"deathPlace":"","deathPlaceLatitude":0,"deathPlaceLongitude":0},{"id":6,"name":"نظامی گنجوی","description":null,"fullUrl":"/nezami","rootCatId":110,"nickname":"نظامی","published":true,"imageUrl":"/api/ganjoor/poet/image/nezami.gif","birthYearInLHijri":530,"validBirthDate":false,"deathYearInLHijri":599,"validDeathDate":false,"pinOrder":6,"birthPlace":"گنجه","birthPlaceLatitude":40.6879,"birthPlaceLongitude":46.3723,"deathPlace":"","deathPlaceLatitude":0,"deathPlaceLongitude":0},{"id":84,"name":"نظامی عروضی","description":null,"fullUrl":"/aroozi","rootCatId":2225,"nickname":"نظامی عروضی","published":true,"imageUrl":"/api/ganjoor/poet/image/aroozi.gif","birthYearInLHijri":501,"validBirthDate":false,"deathYearInLHijri":560,"validDeathDate":false,"pinOrder":0,"birthPlace":"سمرقند","birthPlaceLatitude":39.627,"birthPlaceLongitude":66.975,"deathPlace":"","deathPlaceLatitude":0,"deathPlaceLongitude":0},{"id":157,"name":"نظیری نیشابوری","description":null,"fullUrl":"/naziri","rootCatId":2828,"nickname":"نظیری نیشابوری","published":true,"imageUrl":"/api/ganjoor/poet/image/naziri.gif","birthYearInLHijri":960,"validBirthDate":false,"deathYearInLHijri":1021,"validDeathDate":true,"pinOrder":0,"birthPlace":"نیشابور","birthPlaceLatitude":36.2141,"birthPlaceLongitude":58.7961,"deathPlace":"آگره","deathPlaceLatitude":27.18,"deathPlaceLongitude":78.02},{"id":191,"name":"نورعلیشاه","description":null,"fullUrl":"/noorali","rootCatId":3151,"nickname":"نورعلیشاه","published":true,"imageUrl":"/api/ganjoor/poet/image/noorali.gif","birthYearInLHijri":1160,"validBirthDate":true,"deathYearInLHijri":1212,"validDeathDate":true,"pinOrder":0,"birthPlace":"اصفهان","birthPlaceLatitude":32.6539,"birthPlaceLongitude":51.666,"deathPlace":"","deathPlaceLatitude":0,"deathPlaceLongitude":0},{"id":111,"name":"نوعی خبوشانی","description":null,"fullUrl":"/nouee","rootCatId":2517,"nickname":"نوعی خبوشانی","published":true,"imageUrl":"/api/ganjoor/poet/image/nouee.gif","birthYearInLHijri":985,"validBirthDate":false,"deathYearInLHijri":1019,"validDeathDate":true,"pinOrder":0,"birthPlace":"قوچان","birthPlaceLatitude":37.1293,"birthPlaceLongitude":58.4744,"deathPlace":"برهانپور","deathPlaceLatitude":21.3,"deathPlaceLongitude":76.23},{"id":79,"name":"نیر تبریزی","description":null,"fullUrl":"/nayyer","rootCatId":2203,"nickname":"نیر تبریزی","published":true,"imageUrl":"/api/ganjoor/poet/image/nayyer.gif","birthYearInLHijri":1248,"validBirthDate":false,"deathYearInLHijri":1312,"validDeathDate":false,"pinOrder":0,"birthPlace":"تبریز","birthPlaceLatitude":38.0962,"birthPlaceLongitude":46.2738,"deathPlace":"","deathPlaceLatitude":0,"deathPlaceLongitude":0},{"id":158,"name":"واعظ قزوینی","description":null,"fullUrl":"/vaez","rootCatId":2836,"nickname":"واعظ قزوینی","published":true,"imageUrl":"/api/ganjoor/poet/image/vaez.gif","birthYearInLHijri":1027,"validBirthDate":true,"deathYearInLHijri":1090,"validDeathDate":true,"pinOrder":0,"birthPlace":"قزوین","birthPlaceLatitude":36.2737,"birthPlaceLongitude":49.9982,"deathPlace":"قزوین","deathPlaceLatitude":36.2737,"deathPlaceLongitude":49.9982},{"id":81,"name":"وحدت کرمانشاهی","description":null,"fullUrl":"/vahdat","rootCatId":2215,"nickname":"وحدت کرمانشاهی","published":true,"imageUrl":"/api/ganjoor/poet/image/vahdat.gif","birthYearInLHijri":1241,"validBirthDate":false,"deathYearInLHijri":1299,"validDeathDate":false,"pinOrder":0,"birthPlace":"کرمانشاه","birthPlaceLatitude":34.3277,"birthPlaceLongitude":47.0778,"deathPlace":"","deathPlaceLatitude":0,"deathPlaceLongitude":0},{"id":11,"name":"وحشی بافقی","description":null,"fullUrl":"/vahshi","rootCatId":197,"nickname":"وحشی بافقی","published":true,"imageUrl":"/api/ganjoor/poet/image/vahshi.gif","birthYearInLHijri":940,"validBirthDate":false,"deathYearInLHijri":999,"validDeathDate":false,"pinOrder":0,"birthPlace":"بافق","birthPlaceLatitude":31.6216,"birthPlaceLongitude":55.4139,"deathPlace":"","deathPlaceLatitude":0,"deathPlaceLongitude":0},{"id":165,"name":"وحیدالزمان قزوینی","description":null,"fullUrl":"/vahid","rootCatId":2918,"nickname":"وحیدالزمان قزوینی","published":true,"imageUrl":"/api/ganjoor/poet/image/vahid.gif","birthYearInLHijri":1015,"validBirthDate":true,"deathYearInLHijri":1120,"validDeathDate":true,"pinOrder":0,"birthPlace":"قزوین","birthPlaceLatitude":36.2737,"birthPlaceLongitude":49.9982,"deathPlace":"قم","deathPlaceLatitude":34.6416,"deathPlaceLongitude":50.8746},{"id":58,"name":"رشیدالدین وطواط","description":null,"fullUrl":"/vatvat","rootCatId":1882,"nickname":"وطواط","published":true,"imageUrl":"/api/ganjoor/poet/image/vatvat.gif","birthYearInLHijri":481,"validBirthDate":true,"deathYearInLHijri":573,"validDeathDate":true,"pinOrder":0,"birthPlace":"بلخ","birthPlaceLatitude":36.7551,"birthPlaceLongitude":66.8975,"deathPlace":"","deathPlaceLatitude":0,"deathPlaceLongitude":0},{"id":176,"name":"وفایی شوشتری","description":null,"fullUrl":"/shooshtari","rootCatId":3017,"nickname":"وفایی شوشتری","published":true,"imageUrl":"/api/ganjoor/poet/image/shooshtari.gif","birthYearInLHijri":1245,"validBirthDate":true,"deathYearInLHijri":1342,"validDeathDate":true,"pinOrder":0,"birthPlace":"شوشتر","birthPlaceLatitude":32.02,"birthPlaceLongitude":48.83,"deathPlace":"نجف","deathPlaceLatitude":32.0107,"deathPlaceLongitude":44.3265},{"id":175,"name":"وفایی مهابادی","description":null,"fullUrl":"/mahabadi","rootCatId":3011,"nickname":"وفایی مهابادی","published":true,"imageUrl":"/api/ganjoor/poet/image/mahabadi.gif","birthYearInLHijri":1264,"validBirthDate":true,"deathYearInLHijri":1318,"validDeathDate":true,"pinOrder":0,"birthPlace":"مهاباد","birthPlaceLatitude":36.762571,"birthPlaceLongitude":45.721965,"deathPlace":"","deathPlaceLatitude":0,"deathPlaceLongitude":0},{"id":25,"name":"هاتف اصفهانی","description":null,"fullUrl":"/hatef","rootCatId":294,"nickname":"هاتف اصفهانی","published":true,"imageUrl":"/api/ganjoor/poet/image/hatef.gif","birthYearInLHijri":1101,"validBirthDate":false,"deathYearInLHijri":1198,"validDeathDate":false,"pinOrder":0,"birthPlace":"اصفهان","birthPlaceLatitude":32.6539,"birthPlaceLongitude":51.666,"deathPlace":"","deathPlaceLatitude":0,"deathPlaceLongitude":0},{"id":53,"name":"علی بن عثمان هجویری","description":null,"fullUrl":"/hojviri","rootCatId":1750,"nickname":"هجویری","published":true,"imageUrl":"/api/ganjoor/poet/image/hojviri.gif","birthYearInLHijri":390,"validBirthDate":false,"deathYearInLHijri":470,"validDeathDate":false,"pinOrder":0,"birthPlace":"غزنه","birthPlaceLatitude":33.5451,"birthPlaceLongitude":68.4174,"deathPlace":"","deathPlaceLatitude":0,"deathPlaceLongitude":0},{"id":50,"name":"هلالی جغتایی","description":null,"fullUrl":"/helali","rootCatId":1710,"nickname":"هلالی جغتایی","published":true,"imageUrl":"/api/ganjoor/poet/image/helali.gif","birthYearInLHijri":880,"validBirthDate":false,"deathYearInLHijri":936,"validDeathDate":false,"pinOrder":0,"birthPlace":"هرات","birthPlaceLatitude":34.3529,"birthPlaceLongitude":62.204,"deathPlace":"","deathPlaceLatitude":0,"deathPlaceLongitude":0},{"id":75,"name":"همام تبریزی","description":null,"fullUrl":"/homam","rootCatId":2114,"nickname":"همام تبریزی","published":true,"imageUrl":"/api/ganjoor/poet/image/homam.gif","birthYearInLHijri":636,"validBirthDate":false,"deathYearInLHijri":714,"validDeathDate":false,"pinOrder":0,"birthPlace":"تبریز","birthPlaceLatitude":38.0962,"birthPlaceLongitude":46.2738,"deathPlace":"","deathPlaceLatitude":0,"deathPlaceLongitude":0},{"id":163,"name":"یغمای جندقی","description":null,"fullUrl":"/yaghma","rootCatId":2878,"nickname":"یغمای جندقی","published":true,"imageUrl":"/api/ganjoor/poet/image/yaghma.gif","birthYearInLHijri":1196,"validBirthDate":true,"deathYearInLHijri":1276,"validDeathDate":true,"pinOrder":0,"birthPlace":"جندق","birthPlaceLatitude":34.038313,"birthPlaceLongitude":54.413905,"deathPlace":"جندق","deathPlaceLatitude":34.038313,"deathPlaceLongitude":54.413905}]